[
  {
    "name": "صيدلية معاد",
    "address": "Unknown",
    "city": "Algeria",
    "lat": 31.6028256,
    "lon": 3.6788944
  },
  {
    "name": "صيدلية",
    "address": "Unknown",
    "city": "Algeria",
    "lat": 31.60282,
    "lon": 3.6794786
  },
  {
    "name": "صيدلية",
    "address": "Unknown",
    "city": "Algeria",
    "lat": 31.6028105,
    "lon": 3.679231
  },
  {
    "name": "صيدلية بريهمات",
    "address": "Unknown",
    "city": "Algeria",
    "lat": 32.2687303,
    "lon": 3.6304657
  },
  {
    "name": "Pharmacie khernegue",
    "address": "Unknown",
    "city": "Algeria",
    "lat": 32.2896269,
    "lon": 3.6056288
  },
  {
    "name": "Pharmacie chenini",
    "address": "Unknown",
    "city": "Algeria",
    "lat": 32.2764547,
    "lon": 3.6223363
  },
  {
    "name": "Pharmacie laroui",
    "address": "Unknown",
    "city": "Algeria",
    "lat": 32.2628185,
    "lon": 3.6270359
  },
  {
    "name": "Pharmacie tarbago",
    "address": "Unknown",
    "city": "Algeria",
    "lat": 32.2637579,
    "lon": 3.6236566
  },
  {
    "name": "صيدلية مصيطفى",
    "address": "Unknown",
    "city": "Algeria",
    "lat": 32.2528018,
    "lon": 3.6273229
  },
  {
    "name": "Pharmacie kharef",
    "address": "Unknown",
    "city": "Algeria",
    "lat": 32.2611414,
    "lon": 3.6473104
  },
  {
    "name": "صيدلية عميور",
    "address": "Unknown",
    "city": "Algeria",
    "lat": 32.2701331,
    "lon": 3.6334923
  },
  {
    "name": "صيدلية ابن سينا ​​الغربوي",
    "address": "Unknown",
    "city": "Algeria",
    "lat": 32.8248395,
    "lon": 3.758557
  },
  {
    "name": "",
    "address": "Unknown",
    "city": "Algeria",
    "lat": 32.8256379,
    "lon": 3.7630996
  },
  {
    "name": "PHARMACIE ZAHOUANI",
    "address": "Unknown",
    "city": "Algeria",
    "lat": 32.4959944,
    "lon": 3.6751428
  },
  {
    "name": "أبو بكر الرازي",
    "address": "Unknown",
    "city": "Algeria",
    "lat": 32.8280833,
    "lon": 3.7649788
  },
  {
    "name": "",
    "address": "Unknown",
    "city": "Algeria",
    "lat": 32.8292031,
    "lon": 3.762912
  },
  {
    "name": "Pharmacie DAHEUR",
    "address": "Unknown",
    "city": "Algeria",
    "lat": 32.5486559,
    "lon": 3.6016711
  },
  {
    "name": "Pharmacie sidi mhamed",
    "address": "Unknown",
    "city": "Algeria",
    "lat": 32.5431892,
    "lon": 3.6039095
  },
  {
    "name": "صيدلية عيد أمينة",
    "address": "Unknown",
    "city": "Algeria",
    "lat": 32.5375192,
    "lon": 3.6054623
  },
  {
    "name": "صيدلية بونورة",
    "address": "Unknown",
    "city": "Algeria",
    "lat": 32.483776,
    "lon": 3.7014144
  },
  {
    "name": "صيدلية بن هنية",
    "address": "Unknown",
    "city": "Algeria",
    "lat": 32.536351,
    "lon": 3.6115282
  },
  {
    "name": "Pharmacie aden",
    "address": "Unknown",
    "city": "Algeria",
    "lat": 32.5124925,
    "lon": 3.6336129
  },
  {
    "name": "صيدلية باوشي",
    "address": "Unknown",
    "city": "Algeria",
    "lat": 32.8280944,
    "lon": 3.7650228
  },
  {
    "name": "",
    "address": "Unknown",
    "city": "Algeria",
    "lat": 32.4893333,
    "lon": 3.6806038
  },
  {
    "name": "العجال محمد الأمين",
    "address": "Unknown",
    "city": "Algeria",
    "lat": 33.4172473,
    "lon": 3.550996
  },
  {
    "name": "",
    "address": "Unknown",
    "city": "Algeria",
    "lat": 33.4178832,
    "lon": 3.5495297
  },
  {
    "name": "",
    "address": "Unknown",
    "city": "Algeria",
    "lat": 33.4162239,
    "lon": 3.548881
  },
  {
    "name": "",
    "address": "Unknown",
    "city": "Algeria",
    "lat": 33.4126206,
    "lon": 3.5451767
  },
  {
    "name": "صيدلية الفيلات",
    "address": "Unknown",
    "city": "Algeria",
    "lat": 34.1731311,
    "lon": 3.4988859
  },
  {
    "name": "صيدلية بن دراح",
    "address": "Unknown",
    "city": "Algeria",
    "lat": 34.1535102,
    "lon": 3.5013769
  },
  {
    "name": "شداد ن.",
    "address": "Unknown",
    "city": "Algeria",
    "lat": 34.8967196,
    "lon": 3.4890362
  },
  {
    "name": "رزوق",
    "address": "Unknown",
    "city": "Algeria",
    "lat": 34.8934328,
    "lon": 3.4841999
  },
  {
    "name": "صيدلية بين",
    "address": "Unknown",
    "city": "Algeria",
    "lat": 35.1491333,
    "lon": 3.6779842
  },
  {
    "name": "",
    "address": "Unknown",
    "city": "Algeria",
    "lat": 35.1462942,
    "lon": 3.6829219
  },
  {
    "name": "",
    "address": "Unknown",
    "city": "Algeria",
    "lat": 36.1409166,
    "lon": 3.6891258
  },
  {
    "name": "",
    "address": "Unknown",
    "city": "Algeria",
    "lat": 36.1534258,
    "lon": 3.6884018
  },
  {
    "name": "",
    "address": "Unknown",
    "city": "Algeria",
    "lat": 36.1431296,
    "lon": 3.694496
  },
  {
    "name": "",
    "address": "Unknown",
    "city": "Algeria",
    "lat": 36.1503249,
    "lon": 3.6907413
  },
  {
    "name": "",
    "address": "Unknown",
    "city": "Algeria",
    "lat": 36.1428931,
    "lon": 3.6961984
  },
  {
    "name": "Pharmacie Endimed",
    "address": "Unknown",
    "city": "Algeria",
    "lat": 36.1470819,
    "lon": 3.6904327
  },
  {
    "name": "",
    "address": "Unknown",
    "city": "Algeria",
    "lat": 36.1492841,
    "lon": 3.6993501
  },
  {
    "name": "",
    "address": "Unknown",
    "city": "Algeria",
    "lat": 36.1450641,
    "lon": 3.6869748
  },
  {
    "name": "صيدالية دراج",
    "address": "Unknown",
    "city": "Algeria",
    "lat": 36.2356562,
    "lon": 3.6471733
  },
  {
    "name": "صيدلية بوضياف",
    "address": "Unknown",
    "city": "Algeria",
    "lat": 36.2346472,
    "lon": 3.6492098
  },
  {
    "name": "Pharmacie agsous",
    "address": "Unknown",
    "city": "Algeria",
    "lat": 36.3798048,
    "lon": 3.8820656
  },
  {
    "name": "Slimani",
    "address": "Unknown",
    "city": "Algeria",
    "lat": 36.1478,
    "lon": 3.6909681
  },
  {
    "name": "Pharmacie Hamzaoui",
    "address": "Unknown",
    "city": "Algeria",
    "lat": 36.3520139,
    "lon": 3.47639
  },
  {
    "name": "صيدلية الشفاء",
    "address": "Unknown",
    "city": "Algeria",
    "lat": 36.3511744,
    "lon": 3.4774359
  },
  {
    "name": "",
    "address": "Unknown",
    "city": "Algeria",
    "lat": 36.2870098,
    "lon": 3.4939572
  },
  {
    "name": "Pharmacie publique",
    "address": "Unknown",
    "city": "Algeria",
    "lat": 36.2855384,
    "lon": 3.4928148
  },
  {
    "name": "Pharmacie Boulhares",
    "address": "Unknown",
    "city": "Algeria",
    "lat": 36.3703896,
    "lon": 3.8770346
  },
  {
    "name": "صيدلية زياني",
    "address": "Unknown",
    "city": "Algeria",
    "lat": 36.1464178,
    "lon": 3.6946743
  },
  {
    "name": "صيدلية بورابعة",
    "address": "Unknown",
    "city": "Algeria",
    "lat": 36.2945272,
    "lon": 3.6689478
  },
  {
    "name": "صيدلية شملال",
    "address": "Unknown",
    "city": "Algeria",
    "lat": 36.2912941,
    "lon": 3.6753267
  },
  {
    "name": "صيدلية بوداعة",
    "address": "Unknown",
    "city": "Algeria",
    "lat": 36.2934347,
    "lon": 3.6748387
  },
  {
    "name": "",
    "address": "Unknown",
    "city": "Algeria",
    "lat": 36.2959461,
    "lon": 3.6768815
  },
  {
    "name": "Pharmacie Taibi",
    "address": "Unknown",
    "city": "Algeria",
    "lat": 36.218085,
    "lon": 3.8171052
  },
  {
    "name": "",
    "address": "Unknown",
    "city": "Algeria",
    "lat": 36.9156662,
    "lon": 3.8799357
  },
  {
    "name": "Pharmacie Dahak",
    "address": "Unknown",
    "city": "Algeria",
    "lat": 36.7444339,
    "lon": 3.7175568
  },
  {
    "name": "",
    "address": "Unknown",
    "city": "Algeria",
    "lat": 36.6870833,
    "lon": 3.3628682
  },
  {
    "name": "Pharmacie Ouled Moussa",
    "address": "Unknown",
    "city": "Algeria",
    "lat": 36.6855567,
    "lon": 3.3645959
  },
  {
    "name": "",
    "address": "Unknown",
    "city": "Algeria",
    "lat": 36.6890682,
    "lon": 3.3603059
  },
  {
    "name": "",
    "address": "Unknown",
    "city": "Algeria",
    "lat": 36.6885836,
    "lon": 3.3631434
  },
  {
    "name": "Tedjlabin",
    "address": "Unknown",
    "city": "Algeria",
    "lat": 36.7526577,
    "lon": 3.4454378
  },
  {
    "name": "",
    "address": "Unknown",
    "city": "Algeria",
    "lat": 36.64947,
    "lon": 3.333392
  },
  {
    "name": "",
    "address": "Unknown",
    "city": "Algeria",
    "lat": 36.7313083,
    "lon": 3.4950099
  },
  {
    "name": "",
    "address": "Unknown",
    "city": "Algeria",
    "lat": 36.6778095,
    "lon": 3.3643009
  },
  {
    "name": "",
    "address": "Unknown",
    "city": "Algeria",
    "lat": 36.7077788,
    "lon": 3.3947034
  },
  {
    "name": "",
    "address": "Unknown",
    "city": "Algeria",
    "lat": 36.7854197,
    "lon": 3.5597758
  },
  {
    "name": "",
    "address": "Unknown",
    "city": "Algeria",
    "lat": 36.7847563,
    "lon": 3.6058623
  },
  {
    "name": "",
    "address": "Unknown",
    "city": "Algeria",
    "lat": 36.5357359,
    "lon": 3.8292388
  },
  {
    "name": "Pharmacie KEDADSA",
    "address": "Unknown",
    "city": "Algeria",
    "lat": 36.7390321,
    "lon": 3.3386701
  },
  {
    "name": "Pharmacie Takdempt",
    "address": "Unknown",
    "city": "Algeria",
    "lat": 36.9065942,
    "lon": 3.8641453
  },
  {
    "name": "",
    "address": "Unknown",
    "city": "Algeria",
    "lat": 36.4891838,
    "lon": 3.7683692
  },
  {
    "name": "صيدلية الحاج سبع",
    "address": "Unknown",
    "city": "Algeria",
    "lat": 36.7268217,
    "lon": 3.4110698
  },
  {
    "name": "",
    "address": "Unknown",
    "city": "Algeria",
    "lat": 36.7548886,
    "lon": 3.4420468
  },
  {
    "name": "",
    "address": "Unknown",
    "city": "Algeria",
    "lat": 36.7633007,
    "lon": 3.4609092
  },
  {
    "name": "Pharmacie CNAS",
    "address": "Unknown",
    "city": "Algeria",
    "lat": 36.7634714,
    "lon": 3.459745
  },
  {
    "name": "pharmacie cherifi",
    "address": "Unknown",
    "city": "Algeria",
    "lat": 36.5883009,
    "lon": 3.77689
  },
  {
    "name": "Pharmacie CRD",
    "address": "Unknown",
    "city": "Algeria",
    "lat": 36.7565763,
    "lon": 3.4741077
  },
  {
    "name": "",
    "address": "Unknown",
    "city": "Algeria",
    "lat": 36.7575621,
    "lon": 3.4559706
  },
  {
    "name": "Pharmacie Colline Verte",
    "address": "Unknown",
    "city": "Algeria",
    "lat": 36.7631874,
    "lon": 3.4631624
  },
  {
    "name": "Pharmacie Hamiche F.",
    "address": "Unknown",
    "city": "Algeria",
    "lat": 36.7594127,
    "lon": 3.4592235
  },
  {
    "name": "Pharmacie COOK",
    "address": "Unknown",
    "city": "Algeria",
    "lat": 36.7568174,
    "lon": 3.4765305
  },
  {
    "name": "صيدلية براهيمي",
    "address": "Unknown",
    "city": "Algeria",
    "lat": 36.7583307,
    "lon": 3.4576286
  },
  {
    "name": "Pharmacie 350 Logements",
    "address": "Unknown",
    "city": "Algeria",
    "lat": 36.7615716,
    "lon": 3.4597238
  },
  {
    "name": "Pharmacie Mad'Or",
    "address": "Unknown",
    "city": "Algeria",
    "lat": 36.7554517,
    "lon": 3.4770421
  },
  {
    "name": "",
    "address": "Unknown",
    "city": "Algeria",
    "lat": 36.7428796,
    "lon": 3.7168599
  },
  {
    "name": "Pharmacie Said",
    "address": "Unknown",
    "city": "Algeria",
    "lat": 36.7467648,
    "lon": 3.3423633
  },
  {
    "name": "Pharmacie 0381",
    "address": "Unknown",
    "city": "Algeria",
    "lat": 36.7263539,
    "lon": 3.5554664
  },
  {
    "name": "",
    "address": "Unknown",
    "city": "Algeria",
    "lat": 36.7265984,
    "lon": 3.5576284
  },
  {
    "name": "",
    "address": "Unknown",
    "city": "Algeria",
    "lat": 36.7272704,
    "lon": 3.5464304
  },
  {
    "name": "",
    "address": "Unknown",
    "city": "Algeria",
    "lat": 36.722887,
    "lon": 3.5589891
  },
  {
    "name": "",
    "address": "Unknown",
    "city": "Algeria",
    "lat": 36.7497254,
    "lon": 3.8354456
  },
  {
    "name": "",
    "address": "Unknown",
    "city": "Algeria",
    "lat": 36.7245042,
    "lon": 3.3382584
  },
  {
    "name": "Pharmacie Boutiche",
    "address": "Unknown",
    "city": "Algeria",
    "lat": 36.7282351,
    "lon": 3.3391792
  },
  {
    "name": "Pharmacie 1200 logements",
    "address": "Unknown",
    "city": "Algeria",
    "lat": 36.7573654,
    "lon": 3.4707784
  },
  {
    "name": "صيدلية ااحاج علي سمير",
    "address": "Unknown",
    "city": "Algeria",
    "lat": 36.6491373,
    "lon": 3.3358058
  },
  {
    "name": "Cooperative individuel el hadhaba plateau",
    "address": "Unknown",
    "city": "Algeria",
    "lat": 36.7367809,
    "lon": 3.3966308
  },
  {
    "name": "",
    "address": "Unknown",
    "city": "Algeria",
    "lat": 36.7502093,
    "lon": 3.34223
  },
  {
    "name": "Pharmacie 8234",
    "address": "Unknown",
    "city": "Algeria",
    "lat": 36.6676242,
    "lon": 3.5939098
  },
  {
    "name": "Pharmacie 4838",
    "address": "Unknown",
    "city": "Algeria",
    "lat": 36.6675277,
    "lon": 3.5919637
  },
  {
    "name": "صيدلية",
    "address": "Unknown",
    "city": "Algeria",
    "lat": 36.667881,
    "lon": 3.5899834
  },
  {
    "name": "",
    "address": "Unknown",
    "city": "Algeria",
    "lat": 36.7413845,
    "lon": 3.7195546
  },
  {
    "name": "Pharmacie Agli",
    "address": "Unknown",
    "city": "Algeria",
    "lat": 36.755563,
    "lon": 3.458222
  },
  {
    "name": "",
    "address": "Unknown",
    "city": "Algeria",
    "lat": 36.7420536,
    "lon": 3.3434044
  },
  {
    "name": "Pharmacie Hamoudi",
    "address": "Unknown",
    "city": "Algeria",
    "lat": 36.7566394,
    "lon": 3.4754906
  },
  {
    "name": "صيدلية آيت جبارة",
    "address": "Unknown",
    "city": "Algeria",
    "lat": 36.725409,
    "lon": 3.4117952
  },
  {
    "name": "صيدلية ملو عجمي",
    "address": "Unknown",
    "city": "Algeria",
    "lat": 36.7251642,
    "lon": 3.410223
  },
  {
    "name": "صيدلية حدو",
    "address": "Unknown",
    "city": "Algeria",
    "lat": 36.7264219,
    "lon": 3.4087961
  },
  {
    "name": "",
    "address": "Unknown",
    "city": "Algeria",
    "lat": 36.5653107,
    "lon": 3.5941059
  },
  {
    "name": "",
    "address": "Unknown",
    "city": "Algeria",
    "lat": 36.5654024,
    "lon": 3.5934104
  },
  {
    "name": "Pharmacie Centrale",
    "address": "Unknown",
    "city": "Algeria",
    "lat": 36.5649269,
    "lon": 3.5944842
  },
  {
    "name": "صيدلية",
    "address": "Unknown",
    "city": "Algeria",
    "lat": 36.8785195,
    "lon": 3.7205703
  },
  {
    "name": "صيدلية",
    "address": "Unknown",
    "city": "Algeria",
    "lat": 36.8793716,
    "lon": 3.7242238
  },
  {
    "name": "صيدلية المراكشي",
    "address": "Unknown",
    "city": "Algeria",
    "lat": 36.8779093,
    "lon": 3.7189075
  },
  {
    "name": "",
    "address": "Unknown",
    "city": "Algeria",
    "lat": 36.7486722,
    "lon": 3.4837934
  },
  {
    "name": "",
    "address": "Unknown",
    "city": "Algeria",
    "lat": 36.7503101,
    "lon": 3.4762754
  },
  {
    "name": "Pharmacie Hlaymia",
    "address": "Unknown",
    "city": "Algeria",
    "lat": 36.7125283,
    "lon": 3.4007954
  },
  {
    "name": "",
    "address": "Unknown",
    "city": "Algeria",
    "lat": 36.7133024,
    "lon": 3.3475422
  },
  {
    "name": "Pharmacie hassen",
    "address": "Unknown",
    "city": "Algeria",
    "lat": 36.7566067,
    "lon": 3.4740564
  },
  {
    "name": "Pharmacie Hail kamel",
    "address": "Unknown",
    "city": "Algeria",
    "lat": 36.6531911,
    "lon": 3.4039839
  },
  {
    "name": "pharmacie i",
    "address": "Unknown",
    "city": "Algeria",
    "lat": 36.5416123,
    "lon": 3.6662107
  },
  {
    "name": "pharmacie boussekine",
    "address": "Unknown",
    "city": "Algeria",
    "lat": 36.5369925,
    "lon": 3.6790516
  },
  {
    "name": "",
    "address": "Unknown",
    "city": "Algeria",
    "lat": 36.7431134,
    "lon": 3.3506839
  },
  {
    "name": "Pharmacie redha",
    "address": "Unknown",
    "city": "Algeria",
    "lat": 36.7565488,
    "lon": 3.4740967
  },
  {
    "name": "",
    "address": "Unknown",
    "city": "Algeria",
    "lat": 36.5355755,
    "lon": 3.680366
  },
  {
    "name": "Pharmacie",
    "address": "Unknown",
    "city": "Algeria",
    "lat": 36.5348197,
    "lon": 3.6822071
  },
  {
    "name": "Pharmacie",
    "address": "Unknown",
    "city": "Algeria",
    "lat": 36.896055,
    "lon": 3.793519
  },
  {
    "name": "صيدلية",
    "address": "Unknown",
    "city": "Algeria",
    "lat": 36.6811268,
    "lon": 3.3717421
  },
  {
    "name": "صيدلية",
    "address": "Unknown",
    "city": "Algeria",
    "lat": 36.7100826,
    "lon": 3.3956807
  },
  {
    "name": "صيدلية",
    "address": "Unknown",
    "city": "Algeria",
    "lat": 36.7149294,
    "lon": 3.3968238
  },
  {
    "name": "صيدلية",
    "address": "Unknown",
    "city": "Algeria",
    "lat": 36.7077783,
    "lon": 3.3897939
  },
  {
    "name": "pharmacy صيدلية",
    "address": "Unknown",
    "city": "Algeria",
    "lat": 36.6395469,
    "lon": 3.3654642
  },
  {
    "name": "صيدلية",
    "address": "Unknown",
    "city": "Algeria",
    "lat": 36.6905003,
    "lon": 3.3594215
  },
  {
    "name": "صيدلية",
    "address": "Unknown",
    "city": "Algeria",
    "lat": 36.6917145,
    "lon": 3.3593572
  },
  {
    "name": "",
    "address": "Unknown",
    "city": "Algeria",
    "lat": 36.7391937,
    "lon": 3.344634
  },
  {
    "name": "Pharmacie Chouaki",
    "address": "Unknown",
    "city": "Algeria",
    "lat": 36.7569991,
    "lon": 4.3162575
  },
  {
    "name": "",
    "address": "Unknown",
    "city": "Algeria",
    "lat": 36.7576237,
    "lon": 4.3165007
  },
  {
    "name": "",
    "address": "Unknown",
    "city": "Algeria",
    "lat": 36.7132195,
    "lon": 4.0484422
  },
  {
    "name": "Tansafart SLIMANA",
    "address": "Unknown",
    "city": "Algeria",
    "lat": 36.7024875,
    "lon": 4.0405038
  },
  {
    "name": "",
    "address": "Unknown",
    "city": "Algeria",
    "lat": 36.7094931,
    "lon": 4.0409481
  },
  {
    "name": "",
    "address": "Unknown",
    "city": "Algeria",
    "lat": 36.6976842,
    "lon": 4.0500665
  },
  {
    "name": "",
    "address": "Unknown",
    "city": "Algeria",
    "lat": 36.7027539,
    "lon": 4.0373807
  },
  {
    "name": "",
    "address": "Unknown",
    "city": "Algeria",
    "lat": 36.7354017,
    "lon": 3.9566198
  },
  {
    "name": "",
    "address": "Unknown",
    "city": "Algeria",
    "lat": 36.7348541,
    "lon": 3.9587094
  },
  {
    "name": "",
    "address": "Unknown",
    "city": "Algeria",
    "lat": 36.5069413,
    "lon": 4.0144028
  },
  {
    "name": "",
    "address": "Unknown",
    "city": "Algeria",
    "lat": 36.9173873,
    "lon": 3.8940247
  },
  {
    "name": "Pharmacie Hamel",
    "address": "Unknown",
    "city": "Algeria",
    "lat": 36.5059089,
    "lon": 4.0161647
  },
  {
    "name": "",
    "address": "Unknown",
    "city": "Algeria",
    "lat": 36.9176868,
    "lon": 3.8909043
  },
  {
    "name": "",
    "address": "Unknown",
    "city": "Algeria",
    "lat": 36.9161858,
    "lon": 3.9033595
  },
  {
    "name": "Pharmacie Baazizi sid Ahmed",
    "address": "Unknown",
    "city": "Algeria",
    "lat": 36.9112214,
    "lon": 3.9132491
  },
  {
    "name": "Pharmacie Bouchakour Nada",
    "address": "Unknown",
    "city": "Algeria",
    "lat": 36.9130934,
    "lon": 3.912302
  },
  {
    "name": "",
    "address": "Unknown",
    "city": "Algeria",
    "lat": 36.9145603,
    "lon": 3.913273
  },
  {
    "name": "",
    "address": "Unknown",
    "city": "Algeria",
    "lat": 36.7109729,
    "lon": 4.0359225
  },
  {
    "name": "",
    "address": "Unknown",
    "city": "Algeria",
    "lat": 36.8017533,
    "lon": 4.2505225
  },
  {
    "name": "",
    "address": "Unknown",
    "city": "Algeria",
    "lat": 36.5387568,
    "lon": 4.3432521
  },
  {
    "name": "",
    "address": "Unknown",
    "city": "Algeria",
    "lat": 36.7322203,
    "lon": 4.1316639
  },
  {
    "name": "Pharmacie Zerfaoui",
    "address": "Unknown",
    "city": "Algeria",
    "lat": 36.7305334,
    "lon": 4.1241369
  },
  {
    "name": "",
    "address": "Unknown",
    "city": "Algeria",
    "lat": 36.744037,
    "lon": 4.1343906
  },
  {
    "name": "",
    "address": "Unknown",
    "city": "Algeria",
    "lat": 36.5839971,
    "lon": 4.4349722
  },
  {
    "name": "Pharmacie La tour",
    "address": "Unknown",
    "city": "Algeria",
    "lat": 36.7011392,
    "lon": 4.0533381
  },
  {
    "name": "",
    "address": "Unknown",
    "city": "Algeria",
    "lat": 36.7136805,
    "lon": 4.0498895
  },
  {
    "name": "Dr Beddek Gynecologue",
    "address": "Unknown",
    "city": "Algeria",
    "lat": 36.7065158,
    "lon": 4.0396005
  },
  {
    "name": "PHARMACIE SLIMANI",
    "address": "Unknown",
    "city": "Algeria",
    "lat": 36.5357646,
    "lon": 4.366955
  },
  {
    "name": "",
    "address": "Unknown",
    "city": "Algeria",
    "lat": 36.5383154,
    "lon": 4.3645515
  },
  {
    "name": "Pharmacie Sidi Ali Ouyahia",
    "address": "Unknown",
    "city": "Algeria",
    "lat": 36.5609087,
    "lon": 4.3244569
  },
  {
    "name": "Pharmacie Aidrous",
    "address": "Unknown",
    "city": "Algeria",
    "lat": 36.7341714,
    "lon": 3.9656224
  },
  {
    "name": "",
    "address": "Unknown",
    "city": "Algeria",
    "lat": 36.5457317,
    "lon": 4.3364337
  },
  {
    "name": "Pharmacie Mazari",
    "address": "Unknown",
    "city": "Algeria",
    "lat": 36.6364497,
    "lon": 4.0401035
  },
  {
    "name": "Pharmacie Zeroual",
    "address": "Unknown",
    "city": "Algeria",
    "lat": 36.6401047,
    "lon": 4.0421398
  },
  {
    "name": "Pharmacie Hammoutene",
    "address": "Unknown",
    "city": "Algeria",
    "lat": 36.7023026,
    "lon": 4.0478678
  },
  {
    "name": "Pharmacie CHAIBI A.",
    "address": "Unknown",
    "city": "Algeria",
    "lat": 36.8455659,
    "lon": 4.0962205
  },
  {
    "name": "",
    "address": "Unknown",
    "city": "Algeria",
    "lat": 36.71513,
    "lon": 4.045902
  },
  {
    "name": "Pharmacie ISSAD",
    "address": "Unknown",
    "city": "Algeria",
    "lat": 36.7576882,
    "lon": 4.3140571
  },
  {
    "name": "Pharmacie Chabane",
    "address": "Unknown",
    "city": "Algeria",
    "lat": 36.8001002,
    "lon": 4.3224246
  },
  {
    "name": "Pharmacie Da belaid",
    "address": "Unknown",
    "city": "Algeria",
    "lat": 36.8080015,
    "lon": 4.3190181
  },
  {
    "name": "Pharmacie Aissat",
    "address": "Unknown",
    "city": "Algeria",
    "lat": 36.7595987,
    "lon": 4.3160979
  },
  {
    "name": "",
    "address": "Unknown",
    "city": "Algeria",
    "lat": 36.7583817,
    "lon": 4.3187509
  },
  {
    "name": "Pharmacie Babot Anussii",
    "address": "Unknown",
    "city": "Algeria",
    "lat": 36.8933061,
    "lon": 4.1225528
  },
  {
    "name": "Bachedi",
    "address": "Unknown",
    "city": "Algeria",
    "lat": 36.8924715,
    "lon": 4.1267658
  },
  {
    "name": "Pharmacie SMAHI K.",
    "address": "Unknown",
    "city": "Algeria",
    "lat": 36.8912664,
    "lon": 4.1185883
  },
  {
    "name": "Pharmacie Moukhtari",
    "address": "Unknown",
    "city": "Algeria",
    "lat": 36.8148581,
    "lon": 4.1617515
  },
  {
    "name": "Slahdji",
    "address": "Unknown",
    "city": "Algeria",
    "lat": 36.6360066,
    "lon": 4.2051254
  },
  {
    "name": "Pharmacie principale",
    "address": "Unknown",
    "city": "Algeria",
    "lat": 36.6372511,
    "lon": 4.2009349
  },
  {
    "name": "",
    "address": "Unknown",
    "city": "Algeria",
    "lat": 36.8632131,
    "lon": 4.2202728
  },
  {
    "name": "Tasnafart",
    "address": "Unknown",
    "city": "Algeria",
    "lat": 36.7336284,
    "lon": 4.3729039
  },
  {
    "name": "Tansafart Ɛic",
    "address": "Unknown",
    "city": "Algeria",
    "lat": 36.739201,
    "lon": 4.3745377
  },
  {
    "name": "Charef Khodja Moussouni",
    "address": "Unknown",
    "city": "Algeria",
    "lat": 36.7963907,
    "lon": 4.3654302
  },
  {
    "name": "Pharmacie Taguemout",
    "address": "Unknown",
    "city": "Algeria",
    "lat": 36.6819788,
    "lon": 4.2840165
  },
  {
    "name": "Pharmacie Ben Tayeb",
    "address": "Unknown",
    "city": "Algeria",
    "lat": 36.6830909,
    "lon": 4.2837965
  },
  {
    "name": "Baloua",
    "address": "Unknown",
    "city": "Algeria",
    "lat": 36.7265328,
    "lon": 4.0657569
  },
  {
    "name": "",
    "address": "Unknown",
    "city": "Algeria",
    "lat": 36.7269194,
    "lon": 4.0663007
  },
  {
    "name": "Tansafart Busameṭ",
    "address": "Unknown",
    "city": "Algeria",
    "lat": 36.5214248,
    "lon": 4.2052261
  },
  {
    "name": "Tansafart n Nuṛa At Weɛmeṛ",
    "address": "Unknown",
    "city": "Algeria",
    "lat": 36.5196808,
    "lon": 4.2047237
  },
  {
    "name": "Pharmacie kecin",
    "address": "Unknown",
    "city": "Algeria",
    "lat": 36.5266201,
    "lon": 4.2066195
  },
  {
    "name": "Pharmacie Aidrous",
    "address": "Unknown",
    "city": "Algeria",
    "lat": 36.7342464,
    "lon": 3.9655054
  },
  {
    "name": "",
    "address": "Unknown",
    "city": "Algeria",
    "lat": 36.9168244,
    "lon": 3.8966332
  },
  {
    "name": "",
    "address": "Unknown",
    "city": "Algeria",
    "lat": 36.5343232,
    "lon": 4.1869713
  },
  {
    "name": "",
    "address": "Unknown",
    "city": "Algeria",
    "lat": 36.6787983,
    "lon": 3.9862217
  },
  {
    "name": "Farmacity",
    "address": "Unknown",
    "city": "Algeria",
    "lat": 36.5691349,
    "lon": 4.3880152
  },
  {
    "name": "",
    "address": "Unknown",
    "city": "Algeria",
    "lat": 36.7334281,
    "lon": 3.963471
  },
  {
    "name": "",
    "address": "Unknown",
    "city": "Algeria",
    "lat": 36.6343948,
    "lon": 4.2066746
  },
  {
    "name": "",
    "address": "Unknown",
    "city": "Algeria",
    "lat": 36.6435482,
    "lon": 4.1994619
  },
  {
    "name": "",
    "address": "Unknown",
    "city": "Algeria",
    "lat": 36.6394959,
    "lon": 4.2000794
  },
  {
    "name": "",
    "address": "Unknown",
    "city": "Algeria",
    "lat": 36.6418603,
    "lon": 4.1999665
  },
  {
    "name": "صيدليةبوروبه الجنوب الغربي",
    "address": "Unknown",
    "city": "Algeria",
    "lat": 36.7150962,
    "lon": 4.0295245
  },
  {
    "name": "",
    "address": "Unknown",
    "city": "Algeria",
    "lat": 36.7014521,
    "lon": 4.046834
  },
  {
    "name": "",
    "address": "Unknown",
    "city": "Algeria",
    "lat": 36.7015611,
    "lon": 4.047234
  },
  {
    "name": "",
    "address": "Unknown",
    "city": "Algeria",
    "lat": 36.7285817,
    "lon": 3.964827
  },
  {
    "name": "",
    "address": "Unknown",
    "city": "Algeria",
    "lat": 36.7194784,
    "lon": 4.0536827
  },
  {
    "name": "",
    "address": "Unknown",
    "city": "Algeria",
    "lat": 36.8817893,
    "lon": 4.1299399
  },
  {
    "name": "",
    "address": "Unknown",
    "city": "Algeria",
    "lat": 36.863644,
    "lon": 4.2204218
  },
  {
    "name": "",
    "address": "Unknown",
    "city": "Algeria",
    "lat": 36.7585128,
    "lon": 3.9817324
  },
  {
    "name": "",
    "address": "Unknown",
    "city": "Algeria",
    "lat": 36.5779084,
    "lon": 4.3270414
  },
  {
    "name": "",
    "address": "Unknown",
    "city": "Algeria",
    "lat": 36.5758084,
    "lon": 4.3261959
  },
  {
    "name": "Tasenfart Hamiti",
    "address": "Unknown",
    "city": "Algeria",
    "lat": 36.6845737,
    "lon": 4.0391621
  },
  {
    "name": "Mitiche",
    "address": "Unknown",
    "city": "Algeria",
    "lat": 36.5384815,
    "lon": 3.9548087
  },
  {
    "name": "Pharmacie rahmani",
    "address": "Unknown",
    "city": "Algeria",
    "lat": 36.5411593,
    "lon": 3.9559148
  },
  {
    "name": "",
    "address": "Unknown",
    "city": "Algeria",
    "lat": 36.7165914,
    "lon": 4.0529483
  },
  {
    "name": "",
    "address": "Unknown",
    "city": "Algeria",
    "lat": 36.7121662,
    "lon": 4.0590587
  },
  {
    "name": "Tansafart Seɛdawi",
    "address": "Unknown",
    "city": "Algeria",
    "lat": 36.7462422,
    "lon": 4.3665891
  },
  {
    "name": "Tansafart At Yaḥia",
    "address": "Unknown",
    "city": "Algeria",
    "lat": 36.7347204,
    "lon": 4.4393212
  },
  {
    "name": "",
    "address": "Unknown",
    "city": "Algeria",
    "lat": 36.7603873,
    "lon": 4.3879851
  },
  {
    "name": "",
    "address": "Unknown",
    "city": "Algeria",
    "lat": 36.6853583,
    "lon": 4.2675549
  },
  {
    "name": "",
    "address": "Unknown",
    "city": "Algeria",
    "lat": 36.7036753,
    "lon": 4.238613
  },
  {
    "name": "صيدلية كيتوس",
    "address": "Unknown",
    "city": "Algeria",
    "lat": 36.7143147,
    "lon": 4.0501738
  },
  {
    "name": "",
    "address": "Unknown",
    "city": "Algeria",
    "lat": 36.7957432,
    "lon": 4.4202474
  },
  {
    "name": "Pharmacie mitiche",
    "address": "Unknown",
    "city": "Algeria",
    "lat": 36.542202,
    "lon": 3.9525029
  },
  {
    "name": "Tansafart",
    "address": "Unknown",
    "city": "Algeria",
    "lat": 36.5240936,
    "lon": 4.2054714
  },
  {
    "name": "Pharmacie MECHICHE",
    "address": "Unknown",
    "city": "Algeria",
    "lat": 36.7115806,
    "lon": 4.0501972
  },
  {
    "name": "dispensaire ait hichem",
    "address": "Unknown",
    "city": "Algeria",
    "lat": 36.5848331,
    "lon": 4.3307108
  },
  {
    "name": "Pharmaco ait hamou",
    "address": "Unknown",
    "city": "Algeria",
    "lat": 36.5722307,
    "lon": 4.3091208
  },
  {
    "name": "pharmacie ait bachir 026 26 91 96",
    "address": "Unknown",
    "city": "Algeria",
    "lat": 36.5703417,
    "lon": 4.3143698
  },
  {
    "name": "",
    "address": "Unknown",
    "city": "Algeria",
    "lat": 36.3877204,
    "lon": 4.4006721
  },
  {
    "name": "Pharmacie Bara",
    "address": "Unknown",
    "city": "Algeria",
    "lat": 36.3882954,
    "lon": 4.3986619
  },
  {
    "name": "Ibettiouene",
    "address": "Unknown",
    "city": "Algeria",
    "lat": 36.3870161,
    "lon": 4.3996964
  },
  {
    "name": "Djaou",
    "address": "Unknown",
    "city": "Algeria",
    "lat": 36.3905658,
    "lon": 4.3977034
  },
  {
    "name": "Pharmacie LETTIFI",
    "address": "Unknown",
    "city": "Algeria",
    "lat": 36.3829362,
    "lon": 4.4051804
  },
  {
    "name": "Pharmacie Ali Kaidi",
    "address": "Unknown",
    "city": "Algeria",
    "lat": 36.2509739,
    "lon": 4.0431801
  },
  {
    "name": "",
    "address": "Unknown",
    "city": "Algeria",
    "lat": 36.2535349,
    "lon": 4.0404039
  },
  {
    "name": "",
    "address": "Unknown",
    "city": "Algeria",
    "lat": 36.2531512,
    "lon": 4.0410615
  },
  {
    "name": "",
    "address": "Unknown",
    "city": "Algeria",
    "lat": 36.3785905,
    "lon": 3.8862902
  },
  {
    "name": "arraw lahram",
    "address": "Unknown",
    "city": "Algeria",
    "lat": 36.3586667,
    "lon": 4.32082
  },
  {
    "name": "Babou Tarek",
    "address": "Unknown",
    "city": "Algeria",
    "lat": 36.3599409,
    "lon": 4.323335
  },
  {
    "name": "Ouaissa",
    "address": "Unknown",
    "city": "Algeria",
    "lat": 36.3842246,
    "lon": 4.4019328
  },
  {
    "name": "saoudi",
    "address": "Unknown",
    "city": "Algeria",
    "lat": 36.3587162,
    "lon": 4.3209113
  },
  {
    "name": "Pharmacie Ben Touila",
    "address": "Unknown",
    "city": "Algeria",
    "lat": 36.1206153,
    "lon": 4.3720689
  },
  {
    "name": "",
    "address": "Unknown",
    "city": "Algeria",
    "lat": 36.4195512,
    "lon": 4.3396799
  },
  {
    "name": "Pharmacie boumedian",
    "address": "Unknown",
    "city": "Algeria",
    "lat": 36.4201669,
    "lon": 4.3412971
  },
  {
    "name": "Pharmacie salim",
    "address": "Unknown",
    "city": "Algeria",
    "lat": 36.4159293,
    "lon": 4.3410073
  },
  {
    "name": "Pharmacie de Ras Bouira",
    "address": "Unknown",
    "city": "Algeria",
    "lat": 36.368768,
    "lon": 3.9104186
  },
  {
    "name": "صيدلية",
    "address": "Unknown",
    "city": "Algeria",
    "lat": 36.1175186,
    "lon": 4.3865449
  },
  {
    "name": "",
    "address": "Unknown",
    "city": "Algeria",
    "lat": 36.1188171,
    "lon": 4.3774481
  },
  {
    "name": "",
    "address": "Unknown",
    "city": "Algeria",
    "lat": 36.3379329,
    "lon": 4.2608726
  },
  {
    "name": "",
    "address": "Unknown",
    "city": "Algeria",
    "lat": 36.3771453,
    "lon": 3.8845716
  },
  {
    "name": "Pharmacie rabia",
    "address": "Unknown",
    "city": "Algeria",
    "lat": 36.3724552,
    "lon": 3.8874683
  },
  {
    "name": "",
    "address": "Unknown",
    "city": "Algeria",
    "lat": 36.3798823,
    "lon": 3.8922344
  },
  {
    "name": "",
    "address": "Unknown",
    "city": "Algeria",
    "lat": 36.3783794,
    "lon": 3.8896659
  },
  {
    "name": "",
    "address": "Unknown",
    "city": "Algeria",
    "lat": 36.3751695,
    "lon": 3.8929977
  },
  {
    "name": "Pharmacie rabia",
    "address": "Unknown",
    "city": "Algeria",
    "lat": 36.3737581,
    "lon": 3.9006926
  },
  {
    "name": "Pharmacie Rahmi",
    "address": "Unknown",
    "city": "Algeria",
    "lat": 36.3741631,
    "lon": 3.8994698
  },
  {
    "name": "Pharmacie laaleg",
    "address": "Unknown",
    "city": "Algeria",
    "lat": 36.371968,
    "lon": 3.8847365
  },
  {
    "name": "Pharmacie Tahenni",
    "address": "Unknown",
    "city": "Algeria",
    "lat": 36.3753557,
    "lon": 3.8860936
  },
  {
    "name": "Pharmacie Haizer",
    "address": "Unknown",
    "city": "Algeria",
    "lat": 36.3958591,
    "lon": 4.0001919
  },
  {
    "name": "Pharmacie Titah",
    "address": "Unknown",
    "city": "Algeria",
    "lat": 36.3725273,
    "lon": 3.8916541
  },
  {
    "name": "Pharmacie benhamiche",
    "address": "Unknown",
    "city": "Algeria",
    "lat": 36.3771999,
    "lon": 3.8876928
  },
  {
    "name": "",
    "address": "Unknown",
    "city": "Algeria",
    "lat": 36.3885974,
    "lon": 3.900685
  },
  {
    "name": "",
    "address": "Unknown",
    "city": "Algeria",
    "lat": 36.3291909,
    "lon": 4.1595982
  },
  {
    "name": "",
    "address": "Unknown",
    "city": "Algeria",
    "lat": 36.3560855,
    "lon": 4.1221692
  },
  {
    "name": "",
    "address": "Unknown",
    "city": "Algeria",
    "lat": 36.374133,
    "lon": 3.9025707
  },
  {
    "name": "",
    "address": "Unknown",
    "city": "Algeria",
    "lat": 36.3718311,
    "lon": 3.9017273
  },
  {
    "name": "",
    "address": "Unknown",
    "city": "Algeria",
    "lat": 36.3780031,
    "lon": 3.9029212
  },
  {
    "name": "",
    "address": "Unknown",
    "city": "Algeria",
    "lat": 36.3778517,
    "lon": 3.8973066
  },
  {
    "name": "",
    "address": "Unknown",
    "city": "Algeria",
    "lat": 36.3291405,
    "lon": 4.3254293
  },
  {
    "name": "",
    "address": "Unknown",
    "city": "Algeria",
    "lat": 36.3380531,
    "lon": 4.1868781
  },
  {
    "name": "صيدلية بوراس",
    "address": "Unknown",
    "city": "Algeria",
    "lat": 35.9247727,
    "lon": 4.376264
  },
  {
    "name": "صيدلية أوعيل",
    "address": "Unknown",
    "city": "Algeria",
    "lat": 35.927745,
    "lon": 4.3782916
  },
  {
    "name": "صيدلية العيد",
    "address": "Unknown",
    "city": "Algeria",
    "lat": 35.9283214,
    "lon": 4.3802663
  },
  {
    "name": "صيدلية عبد الكبير",
    "address": "Unknown",
    "city": "Algeria",
    "lat": 35.9255001,
    "lon": 4.3766398
  },
  {
    "name": "",
    "address": "Unknown",
    "city": "Algeria",
    "lat": 35.6737092,
    "lon": 3.8825648
  },
  {
    "name": "",
    "address": "Unknown",
    "city": "Algeria",
    "lat": 35.2058236,
    "lon": 4.1722639
  },
  {
    "name": "Pharmacie Khatibai",
    "address": "Unknown",
    "city": "Algeria",
    "lat": 35.2034891,
    "lon": 4.1698357
  },
  {
    "name": "صيدلية العيشي سيدي سليمان",
    "address": "Unknown",
    "city": "Algeria",
    "lat": 35.1961307,
    "lon": 4.1588965
  },
  {
    "name": "صيدلية الزهراء",
    "address": "Unknown",
    "city": "Algeria",
    "lat": 35.1945565,
    "lon": 4.1574208
  },
  {
    "name": "صيدلية عمور - ف",
    "address": "Unknown",
    "city": "Algeria",
    "lat": 35.2009461,
    "lon": 4.1668042
  },
  {
    "name": "",
    "address": "Unknown",
    "city": "Algeria",
    "lat": 35.3233902,
    "lon": 4.4133932
  },
  {
    "name": "صيدلية طيبي",
    "address": "Unknown",
    "city": "Algeria",
    "lat": 35.2071702,
    "lon": 4.1737423
  },
  {
    "name": "صيدلية 110",
    "address": "Unknown",
    "city": "Algeria",
    "lat": 35.1983179,
    "lon": 4.1672444
  },
  {
    "name": "",
    "address": "Unknown",
    "city": "Algeria",
    "lat": 34.8488559,
    "lon": 4.1603932
  },
  {
    "name": "صيدلية غزة",
    "address": "Unknown",
    "city": "Algeria",
    "lat": 32.4009841,
    "lon": 4.2260375
  },
  {
    "name": "ريلي",
    "address": "Unknown",
    "city": "Algeria",
    "lat": 36.6033731,
    "lon": 4.6350302
  },
  {
    "name": "",
    "address": "Unknown",
    "city": "Algeria",
    "lat": 36.6659441,
    "lon": 4.5112667
  },
  {
    "name": "Pharmacie Loudha",
    "address": "Unknown",
    "city": "Algeria",
    "lat": 36.633203,
    "lon": 4.4626716
  },
  {
    "name": "",
    "address": "Unknown",
    "city": "Algeria",
    "lat": 36.618678,
    "lon": 4.4769758
  },
  {
    "name": "",
    "address": "Unknown",
    "city": "Algeria",
    "lat": 36.6167374,
    "lon": 4.4774263
  },
  {
    "name": "",
    "address": "Unknown",
    "city": "Algeria",
    "lat": 36.6170834,
    "lon": 4.4791519
  },
  {
    "name": "Pharmacie Ait Ouarab",
    "address": "Unknown",
    "city": "Algeria",
    "lat": 36.5792277,
    "lon": 4.445077
  },
  {
    "name": "",
    "address": "Unknown",
    "city": "Algeria",
    "lat": 36.5415557,
    "lon": 4.6125358
  },
  {
    "name": "إبراقن",
    "address": "Unknown",
    "city": "Algeria",
    "lat": 36.5392109,
    "lon": 4.6108476
  },
  {
    "name": "",
    "address": "Unknown",
    "city": "Algeria",
    "lat": 36.5424176,
    "lon": 4.6120503
  },
  {
    "name": "",
    "address": "Unknown",
    "city": "Algeria",
    "lat": 36.5436503,
    "lon": 4.6104946
  },
  {
    "name": "",
    "address": "Unknown",
    "city": "Algeria",
    "lat": 36.5366187,
    "lon": 4.6071766
  },
  {
    "name": "Pharmacie Oulebsir",
    "address": "Unknown",
    "city": "Algeria",
    "lat": 36.6130297,
    "lon": 4.6910398
  },
  {
    "name": "Pharmacie Aïssani Mira",
    "address": "Unknown",
    "city": "Algeria",
    "lat": 36.6078782,
    "lon": 4.6945015
  },
  {
    "name": "Pharmacie Dr K. Roumane",
    "address": "Unknown",
    "city": "Algeria",
    "lat": 36.6880776,
    "lon": 4.8547678
  },
  {
    "name": "Pharmacie Belkhir",
    "address": "Unknown",
    "city": "Algeria",
    "lat": 36.6134349,
    "lon": 4.6878381
  },
  {
    "name": "",
    "address": "Unknown",
    "city": "Algeria",
    "lat": 36.6092988,
    "lon": 4.691381
  },
  {
    "name": "",
    "address": "Unknown",
    "city": "Algeria",
    "lat": 36.610751,
    "lon": 4.6699947
  },
  {
    "name": "Pharmacie Ouahbi",
    "address": "Unknown",
    "city": "Algeria",
    "lat": 36.6124924,
    "lon": 4.684814
  },
  {
    "name": "",
    "address": "Unknown",
    "city": "Algeria",
    "lat": 36.6924318,
    "lon": 4.6726121
  },
  {
    "name": "",
    "address": "Unknown",
    "city": "Algeria",
    "lat": 36.6931114,
    "lon": 4.6700828
  },
  {
    "name": "يونس",
    "address": "Unknown",
    "city": "Algeria",
    "lat": 36.642077,
    "lon": 4.9039088
  },
  {
    "name": "Pharmacie Titoun",
    "address": "Unknown",
    "city": "Algeria",
    "lat": 36.6404554,
    "lon": 4.9038148
  },
  {
    "name": "",
    "address": "Unknown",
    "city": "Algeria",
    "lat": 36.6138808,
    "lon": 4.6895445
  },
  {
    "name": "Yaïche Kamel",
    "address": "Unknown",
    "city": "Algeria",
    "lat": 36.5965524,
    "lon": 4.6207298
  },
  {
    "name": "Bouzaria Noureddine",
    "address": "Unknown",
    "city": "Algeria",
    "lat": 36.593507,
    "lon": 4.6190347
  },
  {
    "name": "Meziani",
    "address": "Unknown",
    "city": "Algeria",
    "lat": 36.7085804,
    "lon": 4.977857
  },
  {
    "name": "",
    "address": "Unknown",
    "city": "Algeria",
    "lat": 36.6123838,
    "lon": 4.6897037
  },
  {
    "name": "Pharmacie Takrietz",
    "address": "Unknown",
    "city": "Algeria",
    "lat": 36.5789244,
    "lon": 4.6502688
  },
  {
    "name": "Agence ENDIMED",
    "address": "Unknown",
    "city": "Algeria",
    "lat": 36.5942832,
    "lon": 4.6217386
  },
  {
    "name": "",
    "address": "Unknown",
    "city": "Algeria",
    "lat": 36.6499802,
    "lon": 4.6786469
  },
  {
    "name": "الزيدي",
    "address": "Unknown",
    "city": "Algeria",
    "lat": 36.6793417,
    "lon": 4.8549148
  },
  {
    "name": "أتروش",
    "address": "Unknown",
    "city": "Algeria",
    "lat": 36.680465,
    "lon": 4.8537296
  },
  {
    "name": "Nait Chaâbane",
    "address": "Unknown",
    "city": "Algeria",
    "lat": 36.6823388,
    "lon": 4.850344
  },
  {
    "name": "",
    "address": "Unknown",
    "city": "Algeria",
    "lat": 36.6148648,
    "lon": 4.4798239
  },
  {
    "name": "",
    "address": "Unknown",
    "city": "Algeria",
    "lat": 36.6117613,
    "lon": 4.6505359
  },
  {
    "name": "Pharmacie Benmammar Abdelaziz",
    "address": "Unknown",
    "city": "Algeria",
    "lat": 36.6201722,
    "lon": 4.7689635
  },
  {
    "name": "Pharmacie Azzi",
    "address": "Unknown",
    "city": "Algeria",
    "lat": 36.6145053,
    "lon": 4.7752888
  },
  {
    "name": "Phamacie Belkabla Yacine",
    "address": "Unknown",
    "city": "Algeria",
    "lat": 36.6451672,
    "lon": 4.8965506
  },
  {
    "name": "",
    "address": "Unknown",
    "city": "Algeria",
    "lat": 36.6303478,
    "lon": 4.7809045
  },
  {
    "name": "",
    "address": "Unknown",
    "city": "Algeria",
    "lat": 36.6292023,
    "lon": 4.7796067
  },
  {
    "name": "",
    "address": "Unknown",
    "city": "Algeria",
    "lat": 36.6799051,
    "lon": 4.852283
  },
  {
    "name": "Aniki Nacim",
    "address": "Unknown",
    "city": "Algeria",
    "lat": 36.6235137,
    "lon": 4.6773968
  },
  {
    "name": "",
    "address": "Unknown",
    "city": "Algeria",
    "lat": 36.6814352,
    "lon": 4.8482858
  },
  {
    "name": "",
    "address": "Unknown",
    "city": "Algeria",
    "lat": 36.6842663,
    "lon": 4.960108
  },
  {
    "name": "",
    "address": "Unknown",
    "city": "Algeria",
    "lat": 36.6859615,
    "lon": 4.854655
  },
  {
    "name": "",
    "address": "Unknown",
    "city": "Algeria",
    "lat": 36.5737885,
    "lon": 4.9597847
  },
  {
    "name": "",
    "address": "Unknown",
    "city": "Algeria",
    "lat": 36.4691041,
    "lon": 4.8672945
  },
  {
    "name": "",
    "address": "Unknown",
    "city": "Algeria",
    "lat": 36.4665426,
    "lon": 4.8687914
  },
  {
    "name": "Moumene Razika",
    "address": "Unknown",
    "city": "Algeria",
    "lat": 36.6204715,
    "lon": 4.7661658
  },
  {
    "name": "Pharmacie de la Gare Kerboub",
    "address": "Unknown",
    "city": "Algeria",
    "lat": 36.6098135,
    "lon": 4.6917699
  },
  {
    "name": "",
    "address": "Unknown",
    "city": "Algeria",
    "lat": 36.6002517,
    "lon": 4.4621722
  },
  {
    "name": "Pharmacie Bouzidi Latifa epse Azouaou",
    "address": "Unknown",
    "city": "Algeria",
    "lat": 36.638727,
    "lon": 4.9036585
  },
  {
    "name": "Pharmacie Hamlat",
    "address": "Unknown",
    "city": "Algeria",
    "lat": 36.6431559,
    "lon": 4.902402
  },
  {
    "name": "Pharmacie Adouane",
    "address": "Unknown",
    "city": "Algeria",
    "lat": 36.646184,
    "lon": 4.90314
  },
  {
    "name": "",
    "address": "Unknown",
    "city": "Algeria",
    "lat": 36.5366581,
    "lon": 4.6071656
  },
  {
    "name": "Pharmacie 3325",
    "address": "Unknown",
    "city": "Algeria",
    "lat": 36.4081001,
    "lon": 4.8902478
  },
  {
    "name": "Pharmacie Toureche",
    "address": "Unknown",
    "city": "Algeria",
    "lat": 36.4429023,
    "lon": 4.8531951
  },
  {
    "name": "",
    "address": "Unknown",
    "city": "Algeria",
    "lat": 36.4640016,
    "lon": 4.5366298
  },
  {
    "name": "Pharmacie Khoudir",
    "address": "Unknown",
    "city": "Algeria",
    "lat": 36.4613226,
    "lon": 4.5358118
  },
  {
    "name": "Pharmacie Amirouche",
    "address": "Unknown",
    "city": "Algeria",
    "lat": 36.463113,
    "lon": 4.5304581
  },
  {
    "name": "",
    "address": "Unknown",
    "city": "Algeria",
    "lat": 36.4645496,
    "lon": 4.535962
  },
  {
    "name": "",
    "address": "Unknown",
    "city": "Algeria",
    "lat": 36.4621401,
    "lon": 4.5249998
  },
  {
    "name": "",
    "address": "Unknown",
    "city": "Algeria",
    "lat": 36.4596529,
    "lon": 4.5269793
  },
  {
    "name": "",
    "address": "Unknown",
    "city": "Algeria",
    "lat": 36.411726,
    "lon": 4.473293
  },
  {
    "name": "Pharmacie Zouaoui",
    "address": "Unknown",
    "city": "Algeria",
    "lat": 36.0441328,
    "lon": 4.8186312
  },
  {
    "name": "",
    "address": "Unknown",
    "city": "Algeria",
    "lat": 36.0891269,
    "lon": 4.7670704
  },
  {
    "name": "Pharmacie Zitouni",
    "address": "Unknown",
    "city": "Algeria",
    "lat": 36.079752,
    "lon": 4.7626625
  },
  {
    "name": "",
    "address": "Unknown",
    "city": "Algeria",
    "lat": 36.075529,
    "lon": 4.763129
  },
  {
    "name": "Pharmacie Azib",
    "address": "Unknown",
    "city": "Algeria",
    "lat": 36.0736164,
    "lon": 4.771349
  },
  {
    "name": "",
    "address": "Unknown",
    "city": "Algeria",
    "lat": 36.0830862,
    "lon": 4.7789199
  },
  {
    "name": "",
    "address": "Unknown",
    "city": "Algeria",
    "lat": 36.0832802,
    "lon": 4.7714547
  },
  {
    "name": "",
    "address": "Unknown",
    "city": "Algeria",
    "lat": 36.0878742,
    "lon": 4.7662243
  },
  {
    "name": "",
    "address": "Unknown",
    "city": "Algeria",
    "lat": 36.0744768,
    "lon": 4.7609178
  },
  {
    "name": "صيدلية بشيم",
    "address": "Unknown",
    "city": "Algeria",
    "lat": 36.0635482,
    "lon": 4.6227374
  },
  {
    "name": "",
    "address": "Unknown",
    "city": "Algeria",
    "lat": 36.0785765,
    "lon": 4.7731604
  },
  {
    "name": "",
    "address": "Unknown",
    "city": "Algeria",
    "lat": 36.0771637,
    "lon": 4.7698069
  },
  {
    "name": "Chemali",
    "address": "Unknown",
    "city": "Algeria",
    "lat": 36.1308634,
    "lon": 4.6756002
  },
  {
    "name": "Adjekhiane",
    "address": "Unknown",
    "city": "Algeria",
    "lat": 36.063327,
    "lon": 4.6293267
  },
  {
    "name": "morad",
    "address": "Unknown",
    "city": "Algeria",
    "lat": 36.0637703,
    "lon": 4.6260354
  },
  {
    "name": "",
    "address": "Unknown",
    "city": "Algeria",
    "lat": 36.0639295,
    "lon": 4.6282264
  },
  {
    "name": "",
    "address": "Unknown",
    "city": "Algeria",
    "lat": 36.0645634,
    "lon": 4.6251643
  },
  {
    "name": "صيدلية حناشي",
    "address": "Unknown",
    "city": "Algeria",
    "lat": 36.0714636,
    "lon": 4.7511089
  },
  {
    "name": "pharmacie + analyses khoudhri",
    "address": "Unknown",
    "city": "Algeria",
    "lat": 36.0761298,
    "lon": 4.7605641
  },
  {
    "name": "",
    "address": "Unknown",
    "city": "Algeria",
    "lat": 36.0683897,
    "lon": 4.7724896
  },
  {
    "name": "",
    "address": "Unknown",
    "city": "Algeria",
    "lat": 36.0738195,
    "lon": 4.7566416
  },
  {
    "name": "",
    "address": "Unknown",
    "city": "Algeria",
    "lat": 36.0801705,
    "lon": 4.7758462
  },
  {
    "name": "",
    "address": "Unknown",
    "city": "Algeria",
    "lat": 36.0715243,
    "lon": 4.7587097
  },
  {
    "name": "",
    "address": "Unknown",
    "city": "Algeria",
    "lat": 36.0661575,
    "lon": 4.7723839
  },
  {
    "name": "",
    "address": "Unknown",
    "city": "Algeria",
    "lat": 36.0708777,
    "lon": 4.7581405
  },
  {
    "name": "",
    "address": "Unknown",
    "city": "Algeria",
    "lat": 36.0710184,
    "lon": 4.7624616
  },
  {
    "name": "",
    "address": "Unknown",
    "city": "Algeria",
    "lat": 36.0647052,
    "lon": 4.74854
  },
  {
    "name": "",
    "address": "Unknown",
    "city": "Algeria",
    "lat": 36.0662877,
    "lon": 4.7575784
  },
  {
    "name": "",
    "address": "Unknown",
    "city": "Algeria",
    "lat": 36.0679317,
    "lon": 4.7600998
  },
  {
    "name": "Pharmacie Ouchen",
    "address": "Unknown",
    "city": "Algeria",
    "lat": 36.0765725,
    "lon": 4.7436204
  },
  {
    "name": "",
    "address": "Unknown",
    "city": "Algeria",
    "lat": 36.0789965,
    "lon": 4.7565601
  },
  {
    "name": "",
    "address": "Unknown",
    "city": "Algeria",
    "lat": 36.06985,
    "lon": 4.7567443
  },
  {
    "name": "بن مالك",
    "address": "Unknown",
    "city": "Algeria",
    "lat": 36.0751304,
    "lon": 4.749729
  },
  {
    "name": "صيدلية صيفي",
    "address": "Unknown",
    "city": "Algeria",
    "lat": 36.0829987,
    "lon": 4.7684068
  },
  {
    "name": "Ould Taleb née Azzoula",
    "address": "Unknown",
    "city": "Algeria",
    "lat": 36.4479229,
    "lon": 4.5282089
  },
  {
    "name": "",
    "address": "Unknown",
    "city": "Algeria",
    "lat": 36.0708327,
    "lon": 4.7778073
  },
  {
    "name": "",
    "address": "Unknown",
    "city": "Algeria",
    "lat": 36.0667517,
    "lon": 4.7578978
  },
  {
    "name": "",
    "address": "Unknown",
    "city": "Algeria",
    "lat": 36.079203,
    "lon": 4.7420192
  },
  {
    "name": "",
    "address": "Unknown",
    "city": "Algeria",
    "lat": 36.0645723,
    "lon": 4.7712816
  },
  {
    "name": "",
    "address": "Unknown",
    "city": "Algeria",
    "lat": 36.0813894,
    "lon": 4.7450051
  },
  {
    "name": "",
    "address": "Unknown",
    "city": "Algeria",
    "lat": 36.062581,
    "lon": 4.7702681
  },
  {
    "name": "Pharmacie Boumekhila",
    "address": "Unknown",
    "city": "Algeria",
    "lat": 36.0708511,
    "lon": 4.7777778
  },
  {
    "name": "",
    "address": "Unknown",
    "city": "Algeria",
    "lat": 36.0778219,
    "lon": 4.777094
  },
  {
    "name": "Phoenix pharma",
    "address": "Unknown",
    "city": "Algeria",
    "lat": 36.0916172,
    "lon": 4.7210766
  },
  {
    "name": "",
    "address": "Unknown",
    "city": "Algeria",
    "lat": 36.3696002,
    "lon": 4.7344414
  },
  {
    "name": "",
    "address": "Unknown",
    "city": "Algeria",
    "lat": 36.070531,
    "lon": 4.7538937
  },
  {
    "name": "",
    "address": "Unknown",
    "city": "Algeria",
    "lat": 36.0677531,
    "lon": 4.7667316
  },
  {
    "name": "",
    "address": "Unknown",
    "city": "Algeria",
    "lat": 36.0656353,
    "lon": 4.7674382
  },
  {
    "name": "",
    "address": "Unknown",
    "city": "Algeria",
    "lat": 36.1325155,
    "lon": 4.6736611
  },
  {
    "name": "",
    "address": "Unknown",
    "city": "Algeria",
    "lat": 36.0700683,
    "lon": 4.7744542
  },
  {
    "name": "",
    "address": "Unknown",
    "city": "Algeria",
    "lat": 36.0782483,
    "lon": 4.7676656
  },
  {
    "name": "",
    "address": "Unknown",
    "city": "Algeria",
    "lat": 36.0392029,
    "lon": 4.8167064
  },
  {
    "name": "Pharmacie Houfaf Fouaz",
    "address": "Unknown",
    "city": "Algeria",
    "lat": 36.1326407,
    "lon": 4.6687936
  },
  {
    "name": "",
    "address": "Unknown",
    "city": "Algeria",
    "lat": 36.079936,
    "lon": 4.7643239
  },
  {
    "name": "",
    "address": "Unknown",
    "city": "Algeria",
    "lat": 36.0685004,
    "lon": 4.7719997
  },
  {
    "name": "",
    "address": "Unknown",
    "city": "Algeria",
    "lat": 36.070484,
    "lon": 4.7537717
  },
  {
    "name": "",
    "address": "Unknown",
    "city": "Algeria",
    "lat": 36.4564453,
    "lon": 4.5355662
  },
  {
    "name": "Pharmacie Akmoum Nabil",
    "address": "Unknown",
    "city": "Algeria",
    "lat": 36.072123,
    "lon": 4.7438943
  },
  {
    "name": "Pharmacie Belouanas Messaouda",
    "address": "Unknown",
    "city": "Algeria",
    "lat": 36.077953,
    "lon": 4.7498028
  },
  {
    "name": "",
    "address": "Unknown",
    "city": "Algeria",
    "lat": 36.0718577,
    "lon": 4.762039
  },
  {
    "name": "",
    "address": "Unknown",
    "city": "Algeria",
    "lat": 36.4633034,
    "lon": 4.5339422
  },
  {
    "name": "",
    "address": "Unknown",
    "city": "Algeria",
    "lat": 36.4601406,
    "lon": 4.5288388
  },
  {
    "name": "",
    "address": "Unknown",
    "city": "Algeria",
    "lat": 36.0626275,
    "lon": 4.7740471
  },
  {
    "name": "Pharmacie Kessal",
    "address": "Unknown",
    "city": "Algeria",
    "lat": 36.0740027,
    "lon": 4.7821013
  },
  {
    "name": "Pharmacie",
    "address": "Unknown",
    "city": "Algeria",
    "lat": 36.4607646,
    "lon": 4.5244526
  },
  {
    "name": "",
    "address": "Unknown",
    "city": "Algeria",
    "lat": 35.9833487,
    "lon": 4.8760768
  },
  {
    "name": "صيدلية جرار",
    "address": "Unknown",
    "city": "Algeria",
    "lat": 35.7129131,
    "lon": 4.5398893
  },
  {
    "name": "ملوكي",
    "address": "Unknown",
    "city": "Algeria",
    "lat": 35.7184717,
    "lon": 4.5452979
  },
  {
    "name": "",
    "address": "Unknown",
    "city": "Algeria",
    "lat": 35.7070254,
    "lon": 4.5401573
  },
  {
    "name": "صيدلية خوجة",
    "address": "Unknown",
    "city": "Algeria",
    "lat": 35.7185808,
    "lon": 4.522712
  },
  {
    "name": "Pharmacie Merah Hocine",
    "address": "Unknown",
    "city": "Algeria",
    "lat": 35.9805379,
    "lon": 4.8782738
  },
  {
    "name": "صيدلية ماني عمر",
    "address": "Unknown",
    "city": "Algeria",
    "lat": 35.9476942,
    "lon": 4.6850563
  },
  {
    "name": "PHARMACIE LOUIFI",
    "address": "Unknown",
    "city": "Algeria",
    "lat": 35.7081671,
    "lon": 4.5259917
  },
  {
    "name": "بن محمد",
    "address": "Unknown",
    "city": "Algeria",
    "lat": 35.6999581,
    "lon": 4.5522923
  },
  {
    "name": "METARFI",
    "address": "Unknown",
    "city": "Algeria",
    "lat": 35.7297364,
    "lon": 4.5465758
  },
  {
    "name": "SOUAMES",
    "address": "Unknown",
    "city": "Algeria",
    "lat": 35.7052095,
    "lon": 4.5423409
  },
  {
    "name": "GHEDBAN",
    "address": "Unknown",
    "city": "Algeria",
    "lat": 35.7049285,
    "lon": 4.5422093
  },
  {
    "name": "",
    "address": "Unknown",
    "city": "Algeria",
    "lat": 35.9005517,
    "lon": 4.901181
  },
  {
    "name": "",
    "address": "Unknown",
    "city": "Algeria",
    "lat": 35.9005654,
    "lon": 4.9012079
  },
  {
    "name": "مداسي",
    "address": "Unknown",
    "city": "Algeria",
    "lat": 35.7050172,
    "lon": 4.5429339
  },
  {
    "name": "يعيش سوفيان",
    "address": "Unknown",
    "city": "Algeria",
    "lat": 35.98025,
    "lon": 4.7315383
  },
  {
    "name": "مناع صلاح الدين",
    "address": "Unknown",
    "city": "Algeria",
    "lat": 35.6990852,
    "lon": 4.5558354
  },
  {
    "name": "",
    "address": "Unknown",
    "city": "Algeria",
    "lat": 35.7210505,
    "lon": 4.539598
  },
  {
    "name": "",
    "address": "Unknown",
    "city": "Algeria",
    "lat": 35.7159927,
    "lon": 4.5361154
  },
  {
    "name": "",
    "address": "Unknown",
    "city": "Algeria",
    "lat": 35.7257982,
    "lon": 4.5375053
  },
  {
    "name": "صيدلية بوغرارة",
    "address": "Unknown",
    "city": "Algeria",
    "lat": 35.7149153,
    "lon": 4.5484783
  },
  {
    "name": "صيدلية عيسو ضياء الحق",
    "address": "Unknown",
    "city": "Algeria",
    "lat": 35.7271059,
    "lon": 4.5448312
  },
  {
    "name": "",
    "address": "Unknown",
    "city": "Algeria",
    "lat": 35.9462743,
    "lon": 4.684934
  },
  {
    "name": "",
    "address": "Unknown",
    "city": "Algeria",
    "lat": 35.6977956,
    "lon": 4.561193
  },
  {
    "name": "صيدلية عبد المجيد لاموري",
    "address": "Unknown",
    "city": "Algeria",
    "lat": 35.7255642,
    "lon": 4.532309
  },
  {
    "name": "PHARMACIE SABIL",
    "address": "Unknown",
    "city": "Algeria",
    "lat": 35.7084868,
    "lon": 4.5287701
  },
  {
    "name": "Pharmacie Smaili",
    "address": "Unknown",
    "city": "Algeria",
    "lat": 35.704005,
    "lon": 4.5348376
  },
  {
    "name": "Pharmacie Doudou",
    "address": "Unknown",
    "city": "Algeria",
    "lat": 35.7165981,
    "lon": 4.5263471
  },
  {
    "name": "Pharmacie Mili Mahdi",
    "address": "Unknown",
    "city": "Algeria",
    "lat": 35.7120792,
    "lon": 4.5421547
  },
  {
    "name": "",
    "address": "Unknown",
    "city": "Algeria",
    "lat": 35.7187736,
    "lon": 4.5364469
  },
  {
    "name": "Pharmacie Dabab",
    "address": "Unknown",
    "city": "Algeria",
    "lat": 35.8017615,
    "lon": 4.5502268
  },
  {
    "name": "صيدلية بن يحي س.",
    "address": "Unknown",
    "city": "Algeria",
    "lat": 35.7028457,
    "lon": 4.5303261
  },
  {
    "name": "Pharmacie Ouali",
    "address": "Unknown",
    "city": "Algeria",
    "lat": 35.7160983,
    "lon": 4.5479523
  },
  {
    "name": "PHARMACIE BOURENANE",
    "address": "Unknown",
    "city": "Algeria",
    "lat": 35.703913,
    "lon": 4.5393974
  },
  {
    "name": "صيدلية زغلاش",
    "address": "Unknown",
    "city": "Algeria",
    "lat": 35.7232639,
    "lon": 4.5346498
  },
  {
    "name": "عيسو",
    "address": "Unknown",
    "city": "Algeria",
    "lat": 35.724333,
    "lon": 4.5393048
  },
  {
    "name": "",
    "address": "Unknown",
    "city": "Algeria",
    "lat": 35.0422334,
    "lon": 4.5606807
  },
  {
    "name": "Pharmacy Dr. AYAT",
    "address": "Unknown",
    "city": "Algeria",
    "lat": 34.9179295,
    "lon": 4.7358412
  },
  {
    "name": "",
    "address": "Unknown",
    "city": "Algeria",
    "lat": 34.8972722,
    "lon": 4.4290982
  },
  {
    "name": "",
    "address": "Unknown",
    "city": "Algeria",
    "lat": 34.895119,
    "lon": 4.4282862
  },
  {
    "name": "صيدلية",
    "address": "Unknown",
    "city": "Algeria",
    "lat": 34.1848178,
    "lon": 4.454931
  },
  {
    "name": "صيدلية",
    "address": "Unknown",
    "city": "Algeria",
    "lat": 34.1853831,
    "lon": 4.4515917
  },
  {
    "name": "صيدلية حميمي عبد الجبار",
    "address": "Unknown",
    "city": "Algeria",
    "lat": 32.7917521,
    "lon": 4.50343
  },
  {
    "name": "",
    "address": "Unknown",
    "city": "Algeria",
    "lat": 32.7921438,
    "lon": 4.5056412
  },
  {
    "name": "",
    "address": "Unknown",
    "city": "Algeria",
    "lat": 32.793273,
    "lon": 4.4985342
  },
  {
    "name": "صيدلية الأمل امساقوم",
    "address": "Unknown",
    "city": "Algeria",
    "lat": 32.7919872,
    "lon": 4.500576
  },
  {
    "name": "",
    "address": "Unknown",
    "city": "Algeria",
    "lat": 32.7955613,
    "lon": 4.5017857
  },
  {
    "name": "",
    "address": "Unknown",
    "city": "Algeria",
    "lat": 32.7932677,
    "lon": 4.4912629
  },
  {
    "name": "",
    "address": "Unknown",
    "city": "Algeria",
    "lat": 32.7902059,
    "lon": 4.498305
  },
  {
    "name": "أمير الطب البديل",
    "address": "Unknown",
    "city": "Algeria",
    "lat": 32.790206,
    "lon": 4.4982722
  },
  {
    "name": "صيدلية الدكتور موسى سيلت",
    "address": "Unknown",
    "city": "Algeria",
    "lat": 22.6620475,
    "lon": 4.577497
  },
  {
    "name": "Pharmacie Meziani",
    "address": "Unknown",
    "city": "Algeria",
    "lat": 36.6597345,
    "lon": 5.1808189
  },
  {
    "name": "Pharmacie Endimed",
    "address": "Unknown",
    "city": "Algeria",
    "lat": 36.6664953,
    "lon": 5.1652154
  },
  {
    "name": "Pharmacie Meziani Tassifth",
    "address": "Unknown",
    "city": "Algeria",
    "lat": 36.6616591,
    "lon": 5.17793
  },
  {
    "name": "Pharmacie Zizi",
    "address": "Unknown",
    "city": "Algeria",
    "lat": 36.6361733,
    "lon": 5.2404291
  },
  {
    "name": "",
    "address": "Unknown",
    "city": "Algeria",
    "lat": 36.7524293,
    "lon": 5.0625562
  },
  {
    "name": "Pharmacie Brahmi",
    "address": "Unknown",
    "city": "Algeria",
    "lat": 36.7515823,
    "lon": 5.0725576
  },
  {
    "name": "Pharmacie Sadoudi Nacer",
    "address": "Unknown",
    "city": "Algeria",
    "lat": 36.6438722,
    "lon": 5.2238792
  },
  {
    "name": "",
    "address": "Unknown",
    "city": "Algeria",
    "lat": 36.7528741,
    "lon": 5.0840093
  },
  {
    "name": "نايت شعبان",
    "address": "Unknown",
    "city": "Algeria",
    "lat": 36.7463338,
    "lon": 5.0528822
  },
  {
    "name": "أوقرقوز",
    "address": "Unknown",
    "city": "Algeria",
    "lat": 36.7511317,
    "lon": 5.0626583
  },
  {
    "name": "",
    "address": "Unknown",
    "city": "Algeria",
    "lat": 36.749544,
    "lon": 5.0558442
  },
  {
    "name": "Pharmacie Docteur Meheleb",
    "address": "Unknown",
    "city": "Algeria",
    "lat": 36.7543056,
    "lon": 5.0546953
  },
  {
    "name": "Dr Tirache",
    "address": "Unknown",
    "city": "Algeria",
    "lat": 36.7513987,
    "lon": 5.0494625
  },
  {
    "name": "",
    "address": "Unknown",
    "city": "Algeria",
    "lat": 36.7514334,
    "lon": 5.0467053
  },
  {
    "name": "",
    "address": "Unknown",
    "city": "Algeria",
    "lat": 36.7509647,
    "lon": 5.043716
  },
  {
    "name": "",
    "address": "Unknown",
    "city": "Algeria",
    "lat": 36.7487202,
    "lon": 5.0622661
  },
  {
    "name": "",
    "address": "Unknown",
    "city": "Algeria",
    "lat": 36.7500218,
    "lon": 5.0633212
  },
  {
    "name": "Pharmacie Cherragui",
    "address": "Unknown",
    "city": "Algeria",
    "lat": 36.6279802,
    "lon": 5.3335974
  },
  {
    "name": "Pharmacie Ayouz",
    "address": "Unknown",
    "city": "Algeria",
    "lat": 36.625586,
    "lon": 5.3368312
  },
  {
    "name": "صيدلية رجراج",
    "address": "Unknown",
    "city": "Algeria",
    "lat": 36.6212632,
    "lon": 5.3419104
  },
  {
    "name": "Pharmacie Benaada",
    "address": "Unknown",
    "city": "Algeria",
    "lat": 36.4583302,
    "lon": 5.2051593
  },
  {
    "name": "Pharmacie Tahi صيدلية تاحي",
    "address": "Unknown",
    "city": "Algeria",
    "lat": 36.6271836,
    "lon": 5.3352772
  },
  {
    "name": "",
    "address": "Unknown",
    "city": "Algeria",
    "lat": 36.5476181,
    "lon": 5.2773526
  },
  {
    "name": "",
    "address": "Unknown",
    "city": "Algeria",
    "lat": 36.7689829,
    "lon": 5.0482947
  },
  {
    "name": "",
    "address": "Unknown",
    "city": "Algeria",
    "lat": 36.7451005,
    "lon": 5.0500075
  },
  {
    "name": "Pharmacie Meceded",
    "address": "Unknown",
    "city": "Algeria",
    "lat": 36.6698883,
    "lon": 5.1543917
  },
  {
    "name": "صيدلية وتاتي صادق",
    "address": "Unknown",
    "city": "Algeria",
    "lat": 36.7576142,
    "lon": 5.0812867
  },
  {
    "name": "Pharmacie Bachiri",
    "address": "Unknown",
    "city": "Algeria",
    "lat": 36.6395835,
    "lon": 5.3604269
  },
  {
    "name": "Pharmacie Lekbal",
    "address": "Unknown",
    "city": "Algeria",
    "lat": 36.6406435,
    "lon": 5.3645655
  },
  {
    "name": "Pharmacie Azni Rachid",
    "address": "Unknown",
    "city": "Algeria",
    "lat": 36.6368405,
    "lon": 5.2413771
  },
  {
    "name": "Pharmacie ENDIMED",
    "address": "Unknown",
    "city": "Algeria",
    "lat": 36.6341802,
    "lon": 5.2443503
  },
  {
    "name": "Pharmacie BESBAS",
    "address": "Unknown",
    "city": "Algeria",
    "lat": 36.6349744,
    "lon": 5.2489905
  },
  {
    "name": "Pharmacie Bali Aissa",
    "address": "Unknown",
    "city": "Algeria",
    "lat": 36.6159614,
    "lon": 5.2175175
  },
  {
    "name": "Pharmacie Endimed",
    "address": "Unknown",
    "city": "Algeria",
    "lat": 36.6129312,
    "lon": 5.2170843
  },
  {
    "name": "Pharmacie Talantikit Karim",
    "address": "Unknown",
    "city": "Algeria",
    "lat": 36.6532198,
    "lon": 5.1903024
  },
  {
    "name": "Pharmacie Meziani",
    "address": "Unknown",
    "city": "Algeria",
    "lat": 36.6587994,
    "lon": 5.1836023
  },
  {
    "name": "Pharmacie ARAB",
    "address": "Unknown",
    "city": "Algeria",
    "lat": 36.5499669,
    "lon": 5.2801095
  },
  {
    "name": "",
    "address": "Unknown",
    "city": "Algeria",
    "lat": 36.4737286,
    "lon": 5.2339383
  },
  {
    "name": "Merzoug مرزوق",
    "address": "Unknown",
    "city": "Algeria",
    "lat": 36.4866067,
    "lon": 5.2807012
  },
  {
    "name": "Kadri Adel",
    "address": "Unknown",
    "city": "Algeria",
    "lat": 36.1896966,
    "lon": 5.4149951
  },
  {
    "name": "RAHMANI SAMIRA",
    "address": "Unknown",
    "city": "Algeria",
    "lat": 36.1987665,
    "lon": 5.4022651
  },
  {
    "name": "REBIAI MALIKA",
    "address": "Unknown",
    "city": "Algeria",
    "lat": 36.1994674,
    "lon": 5.4057943
  },
  {
    "name": "",
    "address": "Unknown",
    "city": "Algeria",
    "lat": 36.2021808,
    "lon": 5.4229192
  },
  {
    "name": "",
    "address": "Unknown",
    "city": "Algeria",
    "lat": 36.1889201,
    "lon": 5.4081302
  },
  {
    "name": 1,
    "address": "Unknown",
    "city": "Algeria",
    "lat": 36.2008751,
    "lon": 5.412806
  },
  {
    "name": "وعيسى عز الدين",
    "address": "Unknown",
    "city": "Algeria",
    "lat": 36.1893185,
    "lon": 5.4057518
  },
  {
    "name": "Ibn Sina",
    "address": "Unknown",
    "city": "Algeria",
    "lat": 36.1903741,
    "lon": 5.4248591
  },
  {
    "name": "Slimani Naima",
    "address": "Unknown",
    "city": "Algeria",
    "lat": 36.1952942,
    "lon": 5.4011942
  },
  {
    "name": "MEZINE FARID",
    "address": "Unknown",
    "city": "Algeria",
    "lat": 36.1697828,
    "lon": 5.2337025
  },
  {
    "name": "Rassidor",
    "address": "Unknown",
    "city": "Algeria",
    "lat": 36.1897599,
    "lon": 5.4218765
  },
  {
    "name": "",
    "address": "Unknown",
    "city": "Algeria",
    "lat": 36.1907816,
    "lon": 5.4284265
  },
  {
    "name": "Pharmacie Benabid",
    "address": "Unknown",
    "city": "Algeria",
    "lat": 36.3319315,
    "lon": 5.1106129
  },
  {
    "name": "",
    "address": "Unknown",
    "city": "Algeria",
    "lat": 36.3317772,
    "lon": 5.0863135
  },
  {
    "name": "",
    "address": "Unknown",
    "city": "Algeria",
    "lat": 36.195284,
    "lon": 5.3946469
  },
  {
    "name": "صيدلية بليليطة",
    "address": "Unknown",
    "city": "Algeria",
    "lat": 36.3551823,
    "lon": 5.5105869
  },
  {
    "name": "Pharmacie Mourad Mouyet",
    "address": "Unknown",
    "city": "Algeria",
    "lat": 36.1839596,
    "lon": 5.3130462
  },
  {
    "name": "Pharmacie Sersoub",
    "address": "Unknown",
    "city": "Algeria",
    "lat": 36.1869962,
    "lon": 5.318756
  },
  {
    "name": "",
    "address": "Unknown",
    "city": "Algeria",
    "lat": 36.1886022,
    "lon": 5.3171864
  },
  {
    "name": "Belhouchat Layachi",
    "address": "Unknown",
    "city": "Algeria",
    "lat": 36.1866636,
    "lon": 5.313438
  },
  {
    "name": "Amarnia",
    "address": "Unknown",
    "city": "Algeria",
    "lat": 36.1995328,
    "lon": 5.4448647
  },
  {
    "name": "Begag",
    "address": "Unknown",
    "city": "Algeria",
    "lat": 36.1983135,
    "lon": 5.4318396
  },
  {
    "name": "Aberkane",
    "address": "Unknown",
    "city": "Algeria",
    "lat": 36.2289474,
    "lon": 5.3965955
  },
  {
    "name": "Pharmacie KADRI",
    "address": "Unknown",
    "city": "Algeria",
    "lat": 36.1899898,
    "lon": 5.4180607
  },
  {
    "name": "Charef",
    "address": "Unknown",
    "city": "Algeria",
    "lat": 36.1906764,
    "lon": 5.4145599
  },
  {
    "name": "عيادة متعددة الخدمات",
    "address": "Unknown",
    "city": "Algeria",
    "lat": 36.3962839,
    "lon": 5.0745567
  },
  {
    "name": "",
    "address": "Unknown",
    "city": "Algeria",
    "lat": 36.3973996,
    "lon": 5.0776149
  },
  {
    "name": "صيدلية بن ودفل",
    "address": "Unknown",
    "city": "Algeria",
    "lat": 36.3967485,
    "lon": 5.0745992
  },
  {
    "name": "صيدلية بن عبيد",
    "address": "Unknown",
    "city": "Algeria",
    "lat": 36.3962036,
    "lon": 5.0784396
  },
  {
    "name": "Pharmaçie BEKAKCHI. F",
    "address": "Unknown",
    "city": "Algeria",
    "lat": 36.2645936,
    "lon": 5.3458346
  },
  {
    "name": "Ouaza",
    "address": "Unknown",
    "city": "Algeria",
    "lat": 36.3351628,
    "lon": 5.1798077
  },
  {
    "name": "صيدلية خرة",
    "address": "Unknown",
    "city": "Algeria",
    "lat": 36.2004301,
    "lon": 5.4096334
  },
  {
    "name": "Pharmacie Endimed",
    "address": "Unknown",
    "city": "Algeria",
    "lat": 36.3375379,
    "lon": 5.1770032
  },
  {
    "name": "Pharmacie Réda Yahiaoui",
    "address": "Unknown",
    "city": "Algeria",
    "lat": 36.3394398,
    "lon": 5.0915805
  },
  {
    "name": "بن صواڨ",
    "address": "Unknown",
    "city": "Algeria",
    "lat": 36.3363126,
    "lon": 5.1771655
  },
  {
    "name": "",
    "address": "Unknown",
    "city": "Algeria",
    "lat": 36.1964906,
    "lon": 5.2663115
  },
  {
    "name": "",
    "address": "Unknown",
    "city": "Algeria",
    "lat": 36.1780669,
    "lon": 5.0229117
  },
  {
    "name": "",
    "address": "Unknown",
    "city": "Algeria",
    "lat": 36.1778672,
    "lon": 5.0266708
  },
  {
    "name": "",
    "address": "Unknown",
    "city": "Algeria",
    "lat": 36.329811,
    "lon": 5.0585747
  },
  {
    "name": "بوزيد فاروق",
    "address": "Unknown",
    "city": "Algeria",
    "lat": 36.1304284,
    "lon": 5.0753179
  },
  {
    "name": "",
    "address": "Unknown",
    "city": "Algeria",
    "lat": 36.329824,
    "lon": 5.058489
  },
  {
    "name": "خالدي ليلة",
    "address": "Unknown",
    "city": "Algeria",
    "lat": 36.0474,
    "lon": 5.08145
  },
  {
    "name": "خرشي",
    "address": "Unknown",
    "city": "Algeria",
    "lat": 36.2021899,
    "lon": 5.4228946
  },
  {
    "name": "صيدلية يعيش محمد",
    "address": "Unknown",
    "city": "Algeria",
    "lat": 36.2948165,
    "lon": 5.2941452
  },
  {
    "name": "صيدلية مهنانة هارون",
    "address": "Unknown",
    "city": "Algeria",
    "lat": 36.2843016,
    "lon": 5.413333
  },
  {
    "name": "Hamma ouafa",
    "address": "Unknown",
    "city": "Algeria",
    "lat": 36.3699298,
    "lon": 5.5078074
  },
  {
    "name": "",
    "address": "Unknown",
    "city": "Algeria",
    "lat": 36.1318043,
    "lon": 5.0806769
  },
  {
    "name": "Pharmacie gheuttel",
    "address": "Unknown",
    "city": "Algeria",
    "lat": 36.194927,
    "lon": 5.4351743
  },
  {
    "name": "",
    "address": "Unknown",
    "city": "Algeria",
    "lat": 36.1891066,
    "lon": 5.4026662
  },
  {
    "name": "",
    "address": "Unknown",
    "city": "Algeria",
    "lat": 36.1844836,
    "lon": 5.311083
  },
  {
    "name": "Pharmacie Metidji",
    "address": "Unknown",
    "city": "Algeria",
    "lat": 36.1974525,
    "lon": 5.4346223
  },
  {
    "name": "",
    "address": "Unknown",
    "city": "Algeria",
    "lat": 36.1905993,
    "lon": 5.3219653
  },
  {
    "name": "Pharmacie Almi",
    "address": "Unknown",
    "city": "Algeria",
    "lat": 36.2741629,
    "lon": 5.4970303
  },
  {
    "name": "Pharmacie Hamma",
    "address": "Unknown",
    "city": "Algeria",
    "lat": 36.1291141,
    "lon": 5.0720149
  },
  {
    "name": "Siari M",
    "address": "Unknown",
    "city": "Algeria",
    "lat": 36.1850454,
    "lon": 5.4087407
  },
  {
    "name": "",
    "address": "Unknown",
    "city": "Algeria",
    "lat": 36.1854067,
    "lon": 5.4051582
  },
  {
    "name": "Kara.f",
    "address": "Unknown",
    "city": "Algeria",
    "lat": 36.1797525,
    "lon": 5.4067926
  },
  {
    "name": "BOUARBI Nabil",
    "address": "Unknown",
    "city": "Algeria",
    "lat": 36.1820661,
    "lon": 5.4035207
  },
  {
    "name": "Timlouka",
    "address": "Unknown",
    "city": "Algeria",
    "lat": 36.1878367,
    "lon": 5.4064327
  },
  {
    "name": "صيدلية بن صواق زهير",
    "address": "Unknown",
    "city": "Algeria",
    "lat": 36.3364581,
    "lon": 5.176895
  },
  {
    "name": "صيدلية لعليوي",
    "address": "Unknown",
    "city": "Algeria",
    "lat": 36.3655768,
    "lon": 5.504202
  },
  {
    "name": "",
    "address": "Unknown",
    "city": "Algeria",
    "lat": 36.4521928,
    "lon": 5.3074458
  },
  {
    "name": "",
    "address": "Unknown",
    "city": "Algeria",
    "lat": 35.9259726,
    "lon": 5.2931276
  },
  {
    "name": "صيدلية طيبة",
    "address": "Unknown",
    "city": "Algeria",
    "lat": 35.6279786,
    "lon": 5.0929463
  },
  {
    "name": "Pharmacie Aziz",
    "address": "Unknown",
    "city": "Algeria",
    "lat": 35.8191578,
    "lon": 5.5105301
  },
  {
    "name": "Pharmacie Ferahtia",
    "address": "Unknown",
    "city": "Algeria",
    "lat": 35.8219048,
    "lon": 5.5100984
  },
  {
    "name": "صيدلية سوالمية",
    "address": "Unknown",
    "city": "Algeria",
    "lat": 35.8149133,
    "lon": 5.5118648
  },
  {
    "name": "Pharmacie Hannachi Abderrahmene",
    "address": "Unknown",
    "city": "Algeria",
    "lat": 35.9408423,
    "lon": 5.0325661
  },
  {
    "name": "Pharmacie Behnas",
    "address": "Unknown",
    "city": "Algeria",
    "lat": 35.9387989,
    "lon": 5.0320109
  },
  {
    "name": "Pharmacie Ghellab",
    "address": "Unknown",
    "city": "Algeria",
    "lat": 35.9429422,
    "lon": 5.0326626
  },
  {
    "name": "Pharmacie Bensalem",
    "address": "Unknown",
    "city": "Algeria",
    "lat": 35.9461734,
    "lon": 5.0357472
  },
  {
    "name": "Pharmacie Thlidjene",
    "address": "Unknown",
    "city": "Algeria",
    "lat": 35.9473481,
    "lon": 5.0401406
  },
  {
    "name": "Pharmacie Benkhadra",
    "address": "Unknown",
    "city": "Algeria",
    "lat": 35.9509591,
    "lon": 5.033588
  },
  {
    "name": "Pharmacie Issaad Abdelkader",
    "address": "Unknown",
    "city": "Algeria",
    "lat": 35.9539652,
    "lon": 5.0363017
  },
  {
    "name": "Pharmacie Salmi",
    "address": "Unknown",
    "city": "Algeria",
    "lat": 35.9539435,
    "lon": 5.0396981
  },
  {
    "name": "Pharmacie Djoubrani",
    "address": "Unknown",
    "city": "Algeria",
    "lat": 35.9425286,
    "lon": 5.0385702
  },
  {
    "name": "Pharmacie Rouagh",
    "address": "Unknown",
    "city": "Algeria",
    "lat": 35.9475555,
    "lon": 5.0334391
  },
  {
    "name": "Pharmacie Cherrad",
    "address": "Unknown",
    "city": "Algeria",
    "lat": 35.9469822,
    "lon": 5.030934
  },
  {
    "name": "Pharmacie Rouabeh",
    "address": "Unknown",
    "city": "Algeria",
    "lat": 35.9454405,
    "lon": 5.0325057
  },
  {
    "name": "Pharmacie Chamkha",
    "address": "Unknown",
    "city": "Algeria",
    "lat": 35.944307,
    "lon": 5.0323877
  },
  {
    "name": "صيدلية",
    "address": "Unknown",
    "city": "Algeria",
    "lat": 35.7111572,
    "lon": 5.4644542
  },
  {
    "name": "",
    "address": "Unknown",
    "city": "Algeria",
    "lat": 35.9292755,
    "lon": 5.2959448
  },
  {
    "name": "Haddad",
    "address": "Unknown",
    "city": "Algeria",
    "lat": 35.916287,
    "lon": 5.2957168
  },
  {
    "name": "",
    "address": "Unknown",
    "city": "Algeria",
    "lat": 35.9178723,
    "lon": 5.2972749
  },
  {
    "name": "",
    "address": "Unknown",
    "city": "Algeria",
    "lat": 35.8506978,
    "lon": 5.2920453
  },
  {
    "name": "",
    "address": "Unknown",
    "city": "Algeria",
    "lat": 35.8509174,
    "lon": 5.288883
  },
  {
    "name": "",
    "address": "Unknown",
    "city": "Algeria",
    "lat": 35.8490226,
    "lon": 5.2882035
  },
  {
    "name": "صيدلية",
    "address": "Unknown",
    "city": "Algeria",
    "lat": 35.6827126,
    "lon": 5.3788015
  },
  {
    "name": "صيدلية ابن القيم",
    "address": "Unknown",
    "city": "Algeria",
    "lat": 35.6834211,
    "lon": 5.3760404
  },
  {
    "name": "بلعكري عبد الرحيم",
    "address": "Unknown",
    "city": "Algeria",
    "lat": 35.8536354,
    "lon": 5.290494
  },
  {
    "name": "صيدلية ابن القيم",
    "address": "Unknown",
    "city": "Algeria",
    "lat": 35.6835255,
    "lon": 5.376046
  },
  {
    "name": "Pharmacie Harbadji",
    "address": "Unknown",
    "city": "Algeria",
    "lat": 35.9173682,
    "lon": 5.2938776
  },
  {
    "name": "",
    "address": "Unknown",
    "city": "Algeria",
    "lat": 35.6136233,
    "lon": 5.1002312
  },
  {
    "name": "",
    "address": "Unknown",
    "city": "Algeria",
    "lat": 35.6133399,
    "lon": 5.0998101
  },
  {
    "name": "",
    "address": "Unknown",
    "city": "Algeria",
    "lat": 35.6148455,
    "lon": 5.0979151
  },
  {
    "name": "",
    "address": "Unknown",
    "city": "Algeria",
    "lat": 35.616374,
    "lon": 5.0971292
  },
  {
    "name": "",
    "address": "Unknown",
    "city": "Algeria",
    "lat": 35.6174326,
    "lon": 5.0952342
  },
  {
    "name": "",
    "address": "Unknown",
    "city": "Algeria",
    "lat": 35.6186995,
    "lon": 5.0943437
  },
  {
    "name": "صيدلية طباخي عصام",
    "address": "Unknown",
    "city": "Algeria",
    "lat": 35.8740151,
    "lon": 5.0751751
  },
  {
    "name": "",
    "address": "Unknown",
    "city": "Algeria",
    "lat": 35.9390733,
    "lon": 5.0372163
  },
  {
    "name": "يسعد الشريف",
    "address": "Unknown",
    "city": "Algeria",
    "lat": 35.9524975,
    "lon": 5.2972225
  },
  {
    "name": "Pharmacie Centrale",
    "address": "Unknown",
    "city": "Algeria",
    "lat": 35.4987428,
    "lon": 5.2605578
  },
  {
    "name": "PHARMACIE BENMOHAMMED MOHAMMED",
    "address": "Unknown",
    "city": "Algeria",
    "lat": 35.3902433,
    "lon": 5.3712674
  },
  {
    "name": "",
    "address": "Unknown",
    "city": "Algeria",
    "lat": 35.3842714,
    "lon": 5.3681074
  },
  {
    "name": "",
    "address": "Unknown",
    "city": "Algeria",
    "lat": 35.3881992,
    "lon": 5.3738466
  },
  {
    "name": "",
    "address": "Unknown",
    "city": "Algeria",
    "lat": 35.3849798,
    "lon": 5.3684326
  },
  {
    "name": "",
    "address": "Unknown",
    "city": "Algeria",
    "lat": 35.3883962,
    "lon": 5.3698674
  },
  {
    "name": "",
    "address": "Unknown",
    "city": "Algeria",
    "lat": 35.393604,
    "lon": 5.3511588
  },
  {
    "name": "",
    "address": "Unknown",
    "city": "Algeria",
    "lat": 35.3831932,
    "lon": 5.3636704
  },
  {
    "name": "",
    "address": "Unknown",
    "city": "Algeria",
    "lat": 35.3937279,
    "lon": 5.3563896
  },
  {
    "name": "",
    "address": "Unknown",
    "city": "Algeria",
    "lat": 35.3833643,
    "lon": 5.3665091
  },
  {
    "name": "",
    "address": "Unknown",
    "city": "Algeria",
    "lat": 35.3856766,
    "lon": 5.3715808
  },
  {
    "name": "صيدلية دريس",
    "address": "Unknown",
    "city": "Algeria",
    "lat": 35.3115856,
    "lon": 5.3737322
  },
  {
    "name": "صيدلية مراح",
    "address": "Unknown",
    "city": "Algeria",
    "lat": 35.3926815,
    "lon": 5.3590008
  },
  {
    "name": "صيدلية رميلي",
    "address": "Unknown",
    "city": "Algeria",
    "lat": 35.4288922,
    "lon": 5.1273235
  },
  {
    "name": "صيدلية هاجر",
    "address": "Unknown",
    "city": "Algeria",
    "lat": 35.4333168,
    "lon": 5.130461
  },
  {
    "name": "",
    "address": "Unknown",
    "city": "Algeria",
    "lat": 35.5462211,
    "lon": 4.979129
  },
  {
    "name": "صيدلية بن يحي عبد الباسط",
    "address": "Unknown",
    "city": "Algeria",
    "lat": 35.3957189,
    "lon": 5.3676085
  },
  {
    "name": "Pharmacie CHITOUR",
    "address": "Unknown",
    "city": "Algeria",
    "lat": 34.6993483,
    "lon": 5.3602105
  },
  {
    "name": "Haider",
    "address": "Unknown",
    "city": "Algeria",
    "lat": 34.7546255,
    "lon": 5.1084952
  },
  {
    "name": "صيدلية عثماني",
    "address": "Unknown",
    "city": "Algeria",
    "lat": 34.7261729,
    "lon": 5.3808966
  },
  {
    "name": "Pharmacie Zemra Khelif",
    "address": "Unknown",
    "city": "Algeria",
    "lat": 34.7299129,
    "lon": 5.3773972
  },
  {
    "name": "صيدلية بصيري جابر",
    "address": "Unknown",
    "city": "Algeria",
    "lat": 34.7354343,
    "lon": 5.3786434
  },
  {
    "name": "صيدلية بن ساهل",
    "address": "Unknown",
    "city": "Algeria",
    "lat": 34.727128,
    "lon": 5.3844568
  },
  {
    "name": "صيدلية لعلى",
    "address": "Unknown",
    "city": "Algeria",
    "lat": 34.7254357,
    "lon": 5.3972051
  },
  {
    "name": "صيدلية بولقرون",
    "address": "Unknown",
    "city": "Algeria",
    "lat": 34.7298262,
    "lon": 5.3882448
  },
  {
    "name": "صيدلية كعواني نور الدين",
    "address": "Unknown",
    "city": "Algeria",
    "lat": 34.7061539,
    "lon": 5.2837035
  },
  {
    "name": "Pharmacie Daas",
    "address": "Unknown",
    "city": "Algeria",
    "lat": 34.7340916,
    "lon": 5.3844138
  },
  {
    "name": "",
    "address": "Unknown",
    "city": "Algeria",
    "lat": 34.7302878,
    "lon": 5.3808438
  },
  {
    "name": "صيدلية حواجلي",
    "address": "Unknown",
    "city": "Algeria",
    "lat": 34.7050471,
    "lon": 5.2853827
  },
  {
    "name": "",
    "address": "Unknown",
    "city": "Algeria",
    "lat": 34.7297812,
    "lon": 5.3938089
  },
  {
    "name": "صيدلية",
    "address": "Unknown",
    "city": "Algeria",
    "lat": 34.7292538,
    "lon": 5.3901365
  },
  {
    "name": "Pharmacie Ghamri Zakaria",
    "address": "Unknown",
    "city": "Algeria",
    "lat": 34.7214859,
    "lon": 5.2832034
  },
  {
    "name": "صيدلية",
    "address": "Unknown",
    "city": "Algeria",
    "lat": 34.6962556,
    "lon": 5.3644018
  },
  {
    "name": "صيدلية حشاني خالد",
    "address": "Unknown",
    "city": "Algeria",
    "lat": 34.7275677,
    "lon": 5.3873513
  },
  {
    "name": "مبيدات فلاحية",
    "address": "Unknown",
    "city": "Algeria",
    "lat": 34.7312514,
    "lon": 5.3968459
  },
  {
    "name": "صيدلية حسني",
    "address": "Unknown",
    "city": "Algeria",
    "lat": 34.7253272,
    "lon": 5.4307364
  },
  {
    "name": "PHARMACIE BENSALEM",
    "address": "Unknown",
    "city": "Algeria",
    "lat": 34.7245269,
    "lon": 5.4661836
  },
  {
    "name": "صيدلية سكال",
    "address": "Unknown",
    "city": "Algeria",
    "lat": 34.4366917,
    "lon": 5.0704809
  },
  {
    "name": "صيدلية منصور",
    "address": "Unknown",
    "city": "Algeria",
    "lat": 34.4341507,
    "lon": 5.0738266
  },
  {
    "name": "صيدلية نطور",
    "address": "Unknown",
    "city": "Algeria",
    "lat": 34.4303875,
    "lon": 5.0705343
  },
  {
    "name": "صيدلية طالب",
    "address": "Unknown",
    "city": "Algeria",
    "lat": 34.4321774,
    "lon": 5.0696148
  },
  {
    "name": "صيدلية",
    "address": "Unknown",
    "city": "Algeria",
    "lat": 34.4315974,
    "lon": 5.0673171
  },
  {
    "name": "صيدلية نفير امين",
    "address": "Unknown",
    "city": "Algeria",
    "lat": 34.4297302,
    "lon": 5.0597214
  },
  {
    "name": "صيدلية بو الطيب",
    "address": "Unknown",
    "city": "Algeria",
    "lat": 34.4280887,
    "lon": 5.0674323
  },
  {
    "name": "صيدلية غشة",
    "address": "Unknown",
    "city": "Algeria",
    "lat": 34.4239837,
    "lon": 5.0610562
  },
  {
    "name": "صيدلية فريحات",
    "address": "Unknown",
    "city": "Algeria",
    "lat": 34.4275204,
    "lon": 5.0574216
  },
  {
    "name": "صيدلية 7040",
    "address": "Unknown",
    "city": "Algeria",
    "lat": 34.4243685,
    "lon": 5.0649411
  },
  {
    "name": "صيدلية لعمش",
    "address": "Unknown",
    "city": "Algeria",
    "lat": 34.4225551,
    "lon": 5.0549519
  },
  {
    "name": "صيدلية خلف الله",
    "address": "Unknown",
    "city": "Algeria",
    "lat": 34.4227643,
    "lon": 5.0676586
  },
  {
    "name": "صيدلية برباص",
    "address": "Unknown",
    "city": "Algeria",
    "lat": 34.3955409,
    "lon": 4.9989223
  },
  {
    "name": "صيدلية غربي",
    "address": "Unknown",
    "city": "Algeria",
    "lat": 34.3953049,
    "lon": 4.997241
  },
  {
    "name": "صيدلية خليفة",
    "address": "Unknown",
    "city": "Algeria",
    "lat": 34.3957246,
    "lon": 4.9972796
  },
  {
    "name": "صيدلية سالم",
    "address": "Unknown",
    "city": "Algeria",
    "lat": 34.5974729,
    "lon": 5.1035891
  },
  {
    "name": "PHARMACIE SLIMANI",
    "address": "Unknown",
    "city": "Algeria",
    "lat": 34.398426,
    "lon": 4.9929077
  },
  {
    "name": "صيدلية",
    "address": "Unknown",
    "city": "Algeria",
    "lat": 34.4314835,
    "lon": 5.0600512
  },
  {
    "name": "PHARMACIE AMRI",
    "address": "Unknown",
    "city": "Algeria",
    "lat": 34.4025125,
    "lon": 4.9972659
  },
  {
    "name": "صيدلية سليماني",
    "address": "Unknown",
    "city": "Algeria",
    "lat": 34.6053585,
    "lon": 5.1056011
  },
  {
    "name": "صيدلية زيدي",
    "address": "Unknown",
    "city": "Algeria",
    "lat": 34.6044009,
    "lon": 5.1040365
  },
  {
    "name": "صيدلية دلول",
    "address": "Unknown",
    "city": "Algeria",
    "lat": 34.3946658,
    "lon": 4.9927298
  },
  {
    "name": "",
    "address": "Unknown",
    "city": "Algeria",
    "lat": 34.3977394,
    "lon": 5.0049799
  },
  {
    "name": "صيدلية إدريسي",
    "address": "Unknown",
    "city": "Algeria",
    "lat": 34.5962096,
    "lon": 5.1016125
  },
  {
    "name": "",
    "address": "Unknown",
    "city": "Algeria",
    "lat": 34.4301982,
    "lon": 5.0681826
  },
  {
    "name": "صيدلية بوطي",
    "address": "Unknown",
    "city": "Algeria",
    "lat": 34.3955665,
    "lon": 4.9862402
  },
  {
    "name": "صيدلية زوراز",
    "address": "Unknown",
    "city": "Algeria",
    "lat": 34.4254434,
    "lon": 5.0566811
  },
  {
    "name": "صيدلية دلسة",
    "address": "Unknown",
    "city": "Algeria",
    "lat": 34.4342325,
    "lon": 5.0624472
  },
  {
    "name": "صيدلية ڨيطون",
    "address": "Unknown",
    "city": "Algeria",
    "lat": 34.4289703,
    "lon": 5.0620118
  },
  {
    "name": "صيدلية خنيفر",
    "address": "Unknown",
    "city": "Algeria",
    "lat": 34.6075537,
    "lon": 5.1055813
  },
  {
    "name": "صيدلية جيلح",
    "address": "Unknown",
    "city": "Algeria",
    "lat": 34.4316251,
    "lon": 5.0730039
  },
  {
    "name": "المؤسسة الوطنية لتوزيع الأدوية",
    "address": "Unknown",
    "city": "Algeria",
    "lat": 34.4318092,
    "lon": 5.0554969
  },
  {
    "name": "صيدلية جغادر رضا",
    "address": "Unknown",
    "city": "Algeria",
    "lat": 34.6041707,
    "lon": 5.1072227
  },
  {
    "name": "صيدلية بامنديل",
    "address": "Unknown",
    "city": "Algeria",
    "lat": 31.9818484,
    "lon": 5.2870894
  },
  {
    "name": "صيدلية قادري",
    "address": "Unknown",
    "city": "Algeria",
    "lat": 31.9850797,
    "lon": 5.2794258
  },
  {
    "name": "صيدلية سيدي عبد القادر",
    "address": "Unknown",
    "city": "Algeria",
    "lat": 31.9501913,
    "lon": 5.3219056
  },
  {
    "name": "صيدلية شبوعات",
    "address": "Unknown",
    "city": "Algeria",
    "lat": 31.958933,
    "lon": 5.3126873
  },
  {
    "name": "pharmacie ibn sina",
    "address": "Unknown",
    "city": "Algeria",
    "lat": 31.9663247,
    "lon": 5.3293674
  },
  {
    "name": "",
    "address": "Unknown",
    "city": "Algeria",
    "lat": 31.9550126,
    "lon": 5.3402705
  },
  {
    "name": "",
    "address": "Unknown",
    "city": "Algeria",
    "lat": 31.9473381,
    "lon": 5.3184445
  },
  {
    "name": "",
    "address": "Unknown",
    "city": "Algeria",
    "lat": 31.9572936,
    "lon": 5.3450774
  },
  {
    "name": "",
    "address": "Unknown",
    "city": "Algeria",
    "lat": 31.9614819,
    "lon": 5.3281751
  },
  {
    "name": "",
    "address": "Unknown",
    "city": "Algeria",
    "lat": 31.9558496,
    "lon": 5.3378877
  },
  {
    "name": "Pharmacie Pasteur",
    "address": "Unknown",
    "city": "Algeria",
    "lat": 31.95081,
    "lon": 5.3325596
  },
  {
    "name": "صيدلية مولاى",
    "address": "Unknown",
    "city": "Algeria",
    "lat": 31.9466301,
    "lon": 5.3234152
  },
  {
    "name": "صيدلية خديمو",
    "address": "Unknown",
    "city": "Algeria",
    "lat": 31.9516604,
    "lon": 5.3236652
  },
  {
    "name": "",
    "address": "Unknown",
    "city": "Algeria",
    "lat": 31.9458784,
    "lon": 5.3152508
  },
  {
    "name": "صيدلية أوليدي",
    "address": "Unknown",
    "city": "Algeria",
    "lat": 31.9509523,
    "lon": 5.2650166
  },
  {
    "name": "صيدلية أوليدي",
    "address": "Unknown",
    "city": "Algeria",
    "lat": 31.95096,
    "lon": 5.2650348
  },
  {
    "name": "",
    "address": "Unknown",
    "city": "Algeria",
    "lat": 31.9472307,
    "lon": 5.3397891
  },
  {
    "name": "صيدلية الحدب",
    "address": "Unknown",
    "city": "Algeria",
    "lat": 31.9308225,
    "lon": 5.3725471
  },
  {
    "name": "صيدلية دلول عين البيضاء",
    "address": "Unknown",
    "city": "Algeria",
    "lat": 31.9408483,
    "lon": 5.3900298
  },
  {
    "name": "",
    "address": "Unknown",
    "city": "Algeria",
    "lat": 31.956622,
    "lon": 5.2701991
  },
  {
    "name": "صيدلية",
    "address": "Unknown",
    "city": "Algeria",
    "lat": 31.9448881,
    "lon": 5.3215721
  },
  {
    "name": "",
    "address": "Unknown",
    "city": "Algeria",
    "lat": 31.9586793,
    "lon": 5.3367951
  },
  {
    "name": "صيدلية",
    "address": "Unknown",
    "city": "Algeria",
    "lat": 31.9350394,
    "lon": 5.3302539
  },
  {
    "name": "صيدلية الليل",
    "address": "Unknown",
    "city": "Algeria",
    "lat": 31.9400205,
    "lon": 5.3406818
  },
  {
    "name": "صيدلية بوعيشة",
    "address": "Unknown",
    "city": "Algeria",
    "lat": 31.9410585,
    "lon": 5.3314646
  },
  {
    "name": "صيدلية باكر حمزة",
    "address": "Unknown",
    "city": "Algeria",
    "lat": 31.9342749,
    "lon": 5.3333675
  },
  {
    "name": "Pharmacie Benzair",
    "address": "Unknown",
    "city": "Algeria",
    "lat": 31.9243252,
    "lon": 5.3512869
  },
  {
    "name": "",
    "address": "Unknown",
    "city": "Algeria",
    "lat": 23.690354,
    "lon": 5.1512377
  },
  {
    "name": "Pharmacie Hadji",
    "address": "Unknown",
    "city": "Algeria",
    "lat": 36.770209,
    "lon": 5.8967488
  },
  {
    "name": "صيدلية بن السوهالي",
    "address": "Unknown",
    "city": "Algeria",
    "lat": 36.7690252,
    "lon": 5.8978867
  },
  {
    "name": "",
    "address": "Unknown",
    "city": "Algeria",
    "lat": 36.7699328,
    "lon": 5.8979442
  },
  {
    "name": "",
    "address": "Unknown",
    "city": "Algeria",
    "lat": 36.7728346,
    "lon": 5.8980584
  },
  {
    "name": "",
    "address": "Unknown",
    "city": "Algeria",
    "lat": 36.7767813,
    "lon": 5.8994934
  },
  {
    "name": "",
    "address": "Unknown",
    "city": "Algeria",
    "lat": 36.7786525,
    "lon": 5.8990374
  },
  {
    "name": "صيدلة عيمر",
    "address": "Unknown",
    "city": "Algeria",
    "lat": 36.7805867,
    "lon": 5.8994686
  },
  {
    "name": "صيدلية هوشي",
    "address": "Unknown",
    "city": "Algeria",
    "lat": 36.7827668,
    "lon": 5.9001122
  },
  {
    "name": "صيدلية شلي",
    "address": "Unknown",
    "city": "Algeria",
    "lat": 36.7186577,
    "lon": 5.8975806
  },
  {
    "name": "",
    "address": "Unknown",
    "city": "Algeria",
    "lat": 36.8231951,
    "lon": 5.7672137
  },
  {
    "name": "Pharmacie Kouras",
    "address": "Unknown",
    "city": "Algeria",
    "lat": 36.8179001,
    "lon": 5.7148759
  },
  {
    "name": "Pharmacie Maamri",
    "address": "Unknown",
    "city": "Algeria",
    "lat": 36.4579106,
    "lon": 6.0412352
  },
  {
    "name": "Pharmacie Chahna",
    "address": "Unknown",
    "city": "Algeria",
    "lat": 36.4593924,
    "lon": 6.0393962
  },
  {
    "name": "Pharmacie centre ville",
    "address": "Unknown",
    "city": "Algeria",
    "lat": 36.4583325,
    "lon": 6.0397111
  },
  {
    "name": "",
    "address": "Unknown",
    "city": "Algeria",
    "lat": 36.4558134,
    "lon": 6.0457823
  },
  {
    "name": "Pharmacie Belattar",
    "address": "Unknown",
    "city": "Algeria",
    "lat": 36.4576712,
    "lon": 6.0429539
  },
  {
    "name": "صيدلية",
    "address": "Unknown",
    "city": "Algeria",
    "lat": 36.7915562,
    "lon": 5.6612769
  },
  {
    "name": "Pharmacie Ghada",
    "address": "Unknown",
    "city": "Algeria",
    "lat": 36.4534373,
    "lon": 6.0482198
  },
  {
    "name": "",
    "address": "Unknown",
    "city": "Algeria",
    "lat": 36.7597867,
    "lon": 5.902981
  },
  {
    "name": "",
    "address": "Unknown",
    "city": "Algeria",
    "lat": 36.4568342,
    "lon": 6.0335962
  },
  {
    "name": "Bachir Cherif",
    "address": "Unknown",
    "city": "Algeria",
    "lat": 36.4635252,
    "lon": 5.645837
  },
  {
    "name": "عميور",
    "address": "Unknown",
    "city": "Algeria",
    "lat": 36.808028,
    "lon": 5.9563097
  },
  {
    "name": "صيدلية حمادو",
    "address": "Unknown",
    "city": "Algeria",
    "lat": 36.8019929,
    "lon": 5.7492303
  },
  {
    "name": "كنزي حنيفة",
    "address": "Unknown",
    "city": "Algeria",
    "lat": 36.5000967,
    "lon": 6.07145
  },
  {
    "name": "",
    "address": "Unknown",
    "city": "Algeria",
    "lat": 36.4587275,
    "lon": 6.0359667
  },
  {
    "name": "",
    "address": "Unknown",
    "city": "Algeria",
    "lat": 36.788231,
    "lon": 5.9055178
  },
  {
    "name": "",
    "address": "Unknown",
    "city": "Algeria",
    "lat": 36.790349,
    "lon": 5.9074124
  },
  {
    "name": "",
    "address": "Unknown",
    "city": "Algeria",
    "lat": 36.4771776,
    "lon": 6.0105552
  },
  {
    "name": "Pharmacie Bouyadayene",
    "address": "Unknown",
    "city": "Algeria",
    "lat": 36.4966862,
    "lon": 6.0595727
  },
  {
    "name": "Bouzenoune",
    "address": "Unknown",
    "city": "Algeria",
    "lat": 36.6616847,
    "lon": 5.7891336
  },
  {
    "name": "",
    "address": "Unknown",
    "city": "Algeria",
    "lat": 36.7852073,
    "lon": 5.9018114
  },
  {
    "name": "PHARMACIE ROULA KH",
    "address": "Unknown",
    "city": "Algeria",
    "lat": 36.8173184,
    "lon": 5.7115762
  },
  {
    "name": "Pharmacie BENKACEM Fayçal",
    "address": "Unknown",
    "city": "Algeria",
    "lat": 36.1539246,
    "lon": 5.7080272
  },
  {
    "name": "PHARMACIE BOUSANDEL",
    "address": "Unknown",
    "city": "Algeria",
    "lat": 36.3981721,
    "lon": 5.9064329
  },
  {
    "name": "",
    "address": "Unknown",
    "city": "Algeria",
    "lat": 36.399487,
    "lon": 5.8978353
  },
  {
    "name": "",
    "address": "Unknown",
    "city": "Algeria",
    "lat": 36.3945077,
    "lon": 5.8931445
  },
  {
    "name": "Pharmacie de garde (Y. Leghrib)",
    "address": "Unknown",
    "city": "Algeria",
    "lat": 36.1514037,
    "lon": 5.6918669
  },
  {
    "name": "",
    "address": "Unknown",
    "city": "Algeria",
    "lat": 36.4088655,
    "lon": 5.9441909
  },
  {
    "name": "صيدلية حوسينات",
    "address": "Unknown",
    "city": "Algeria",
    "lat": 36.4069086,
    "lon": 5.9447617
  },
  {
    "name": "Pharmacie Sedira",
    "address": "Unknown",
    "city": "Algeria",
    "lat": 36.4089806,
    "lon": 5.9480789
  },
  {
    "name": "صيدلية راعي",
    "address": "Unknown",
    "city": "Algeria",
    "lat": 36.4045122,
    "lon": 5.9456913
  },
  {
    "name": "",
    "address": "Unknown",
    "city": "Algeria",
    "lat": 36.3040094,
    "lon": 6.0192622
  },
  {
    "name": "Sayeh Madeur",
    "address": "Unknown",
    "city": "Algeria",
    "lat": 36.3042776,
    "lon": 6.0128536
  },
  {
    "name": "",
    "address": "Unknown",
    "city": "Algeria",
    "lat": 36.304842,
    "lon": 6.0363785
  },
  {
    "name": "",
    "address": "Unknown",
    "city": "Algeria",
    "lat": 36.4365582,
    "lon": 5.820747
  },
  {
    "name": "صيدلية شرفة",
    "address": "Unknown",
    "city": "Algeria",
    "lat": 36.2851941,
    "lon": 5.6083977
  },
  {
    "name": "صيدلية",
    "address": "Unknown",
    "city": "Algeria",
    "lat": 36.2834895,
    "lon": 5.6092294
  },
  {
    "name": "صيدلية",
    "address": "Unknown",
    "city": "Algeria",
    "lat": 36.2834892,
    "lon": 5.6119754
  },
  {
    "name": "Pharmacie 8524",
    "address": "Unknown",
    "city": "Algeria",
    "lat": 36.0081944,
    "lon": 5.7177867
  },
  {
    "name": "",
    "address": "Unknown",
    "city": "Algeria",
    "lat": 36.1573378,
    "lon": 5.6841395
  },
  {
    "name": "",
    "address": "Unknown",
    "city": "Algeria",
    "lat": 36.1526439,
    "lon": 5.680721
  },
  {
    "name": "",
    "address": "Unknown",
    "city": "Algeria",
    "lat": 36.1573932,
    "lon": 5.6897162
  },
  {
    "name": "",
    "address": "Unknown",
    "city": "Algeria",
    "lat": 36.1538483,
    "lon": 5.6909356
  },
  {
    "name": "",
    "address": "Unknown",
    "city": "Algeria",
    "lat": 36.1584467,
    "lon": 5.6903571
  },
  {
    "name": "Adimi",
    "address": "Unknown",
    "city": "Algeria",
    "lat": 36.1528294,
    "lon": 5.688316
  },
  {
    "name": "",
    "address": "Unknown",
    "city": "Algeria",
    "lat": 36.1606059,
    "lon": 5.669313
  },
  {
    "name": "",
    "address": "Unknown",
    "city": "Algeria",
    "lat": 36.1549685,
    "lon": 5.6817792
  },
  {
    "name": "",
    "address": "Unknown",
    "city": "Algeria",
    "lat": 36.1509239,
    "lon": 5.6969172
  },
  {
    "name": "",
    "address": "Unknown",
    "city": "Algeria",
    "lat": 36.1507236,
    "lon": 5.6911821
  },
  {
    "name": "",
    "address": "Unknown",
    "city": "Algeria",
    "lat": 36.1585478,
    "lon": 5.6779259
  },
  {
    "name": "صيدلي فارس قارة",
    "address": "Unknown",
    "city": "Algeria",
    "lat": 36.2865439,
    "lon": 5.6068126
  },
  {
    "name": "",
    "address": "Unknown",
    "city": "Algeria",
    "lat": 36.155336,
    "lon": 5.6825981
  },
  {
    "name": "",
    "address": "Unknown",
    "city": "Algeria",
    "lat": 36.151371,
    "lon": 5.6940436
  },
  {
    "name": "",
    "address": "Unknown",
    "city": "Algeria",
    "lat": 36.1586999,
    "lon": 5.6713494
  },
  {
    "name": "بوعازيز",
    "address": "Unknown",
    "city": "Algeria",
    "lat": 36.1221508,
    "lon": 5.9851474
  },
  {
    "name": "رشيدي",
    "address": "Unknown",
    "city": "Algeria",
    "lat": 36.1241122,
    "lon": 5.9851012
  },
  {
    "name": "رجم زاهيرة",
    "address": "Unknown",
    "city": "Algeria",
    "lat": 36.1190934,
    "lon": 5.9760602
  },
  {
    "name": "لعلوي",
    "address": "Unknown",
    "city": "Algeria",
    "lat": 36.1157912,
    "lon": 5.9803881
  },
  {
    "name": "صالحي",
    "address": "Unknown",
    "city": "Algeria",
    "lat": 36.1200189,
    "lon": 5.9857391
  },
  {
    "name": "Pharmacie Oultache",
    "address": "Unknown",
    "city": "Algeria",
    "lat": 36.1181132,
    "lon": 5.9687216
  },
  {
    "name": "صيدلية قويته",
    "address": "Unknown",
    "city": "Algeria",
    "lat": 36.4094606,
    "lon": 6.0405092
  },
  {
    "name": "",
    "address": "Unknown",
    "city": "Algeria",
    "lat": 35.8585201,
    "lon": 6.0022092
  },
  {
    "name": "Benayache Jobrane",
    "address": "Unknown",
    "city": "Algeria",
    "lat": 35.67265,
    "lon": 5.651178
  },
  {
    "name": "الصيدلية المركزية",
    "address": "Unknown",
    "city": "Algeria",
    "lat": 35.9764595,
    "lon": 5.8171673
  },
  {
    "name": "صيدلية سرسوب",
    "address": "Unknown",
    "city": "Algeria",
    "lat": 35.9793781,
    "lon": 5.8059503
  },
  {
    "name": "الصيدلية المركزية",
    "address": "Unknown",
    "city": "Algeria",
    "lat": 35.9770501,
    "lon": 5.8098592
  },
  {
    "name": "صيدلية عماروش",
    "address": "Unknown",
    "city": "Algeria",
    "lat": 35.9766926,
    "lon": 5.8077182
  },
  {
    "name": "صيدلية درواز عمر",
    "address": "Unknown",
    "city": "Algeria",
    "lat": 35.9760345,
    "lon": 5.8106826
  },
  {
    "name": "صيدلية مسوس",
    "address": "Unknown",
    "city": "Algeria",
    "lat": 35.6826574,
    "lon": 5.6551619
  },